<?xml version='1.0' ?>
<markers>
<marker sr_no="1" blood_bank_name="G.B. Pant Hospital Blood bank" address="Atlanta Point Near Cellular Jail P.O. Aberdeen Bazaar " mobile_no="2147483647" latitude="11.6754" longitude="92.7473" type="Blood_Bank" />
<marker sr_no="2" blood_bank_name="I.N.H.S. Dhanvantri" address="Ashvini Nagar; Port Blair; Andaman and Nicobar Islands." mobile_no="2147483647" latitude="11.6497" longitude="92.7174" type="Blood_Bank" />
<marker sr_no="3" blood_bank_name="Pillar Health Centre Blood Bank" address="Lamba Line; P.B. 526; P.O. Junglighat;  Opposite Airport" mobile_no="2147483647" latitude="11.6532" longitude="92.7307" type="Blood_Bank" />
<marker sr_no="4" blood_bank_name="Indian Red Cross Society Blood Bank, District Branch" address="Near JNTU Engeneering College; Sarada Nagar; Ananthapur." mobile_no="2147483647" latitude="14.6549" longitude="77.6099" type="Blood_Bank" />
<marker sr_no="5" blood_bank_name="Government General Hospital Blood Bank" address="Government General Hospital; Ananthapur" mobile_no="2147483647" latitude="14.6715" longitude="77.5967" type="Blood_Bank" />
<marker sr_no="6" blood_bank_name="Indian Red Cross Society" address="Blood Bank Medical Officer;Blood Bank; Indian Red Cross Society; Anantpur" mobile_no="2147483647" latitude="14.6819" longitude="77.6006" type="Blood_Bank" />
<marker sr_no="7" blood_bank_name="Rural Development Trust Hospital Blood Bank" address="Kadiri Road; Bathalapalli; Ananthapur" mobile_no="2147483647" latitude="14.6529" longitude="77.6188" type="Blood_Bank" />
<marker sr_no="8" blood_bank_name="South Central Railway Hospital Blood Bank" address="S.C. Railway Hospital; Guntakal; Ananthapuramu" mobile_no="2147483647" latitude="15.1729" longitude="77.3661" type="Blood_Bank" />
<marker sr_no="9" blood_bank_name="Indian Red Cross Society Blood Bank" address="Government General Hospital Blood Bank; Hindupur; Ananthapur " mobile_no="0" latitude="13.8325" longitude="77.4922" type="Blood_Bank" />
<marker sr_no="10" blood_bank_name="Indian Red Cross Society Blood bank RCH -II KADIRI" address="Ground Floor; APVVP (Government General Hospital) Area Hospital; Kadiri; Ananthapur " mobile_no="2147483647" latitude="14.1131" longitude="78.1574" type="Blood_Bank" />
<marker sr_no="11" blood_bank_name="S.S.S.I.H.M.S. Blood Bank" address="Prasanthigram; Puttaparthy; Ananthapuramu" mobile_no="2147483647" latitude="14.1519" longitude="77.7768" type="Blood_Bank" />
<marker sr_no="12" blood_bank_name="District Head Quarters Hospital Blood Bank. " address="Head Quarters  Hospital Compound; Chittoor" mobile_no="2147483647" latitude="13.2172" longitude="79.1003" type="Blood_Bank" />
<marker sr_no="13" blood_bank_name="Indian Red Cross Society" address="The Secretary; Indian Red Cross Society; D:No:20-119; PH Road; Redcross Building; Chittoor 517 001; Andhra Pradesh Dr.M.V.Narayana Reddy (MO); Ph:08572 220287" mobile_no="0" latitude="13.2172" longitude="79.1003" type="Blood_Bank" />
<marker sr_no="14" blood_bank_name="M/s IRCS Blood Bank." address="D.No. 20 - 119; Prakasam High Road; Chittor" mobile_no="2147483647" latitude="13.217" longitude="79.1008" type="Blood_Bank" />
<marker sr_no="15" blood_bank_name="M/s PESIMSR Blood Bank." address="PES Institute of medical sciences premises; Kuppam " mobile_no="2147483647" latitude="12.7912" longitude="78.3639" type="Blood_Bank" />
<marker sr_no="16" blood_bank_name="Blood Bank AH Madanapalli" address=" The Blood Bank Medical Officer; Area Hospital; Patel Road; Madanapalli 517 325; Chittoor Dist. ; Andhra pradesh Dr.Laxmiprasadreddy9(M.O)" mobile_no="0" latitude="13.2172" longitude="79.1003" type="Blood_Bank" />
<marker sr_no="17" blood_bank_name="Indian Red Cross Society, Madanapalli RCH 2" address="Area Hospital; Patel Road; Madanapalli. " mobile_no="2147483647" latitude="13.5569" longitude="78.5008" type="Blood_Bank" />
<marker sr_no="18" blood_bank_name="Aswini Hospital Blood Bank, TTD" address="Tirumala Tirupati Devastanam (TTD); Tirumala; Chittoor " mobile_no="2147483647" latitude="13.6773" longitude="79.3487" type="Blood_Bank" />
<marker sr_no="19" blood_bank_name="SVRRGGH - Model Blood Bank" address="S.V.R.R. Government General Hospital; Tirupati " mobile_no="0" latitude="13.6444" longitude="79.407" type="Blood_Bank" />
<marker sr_no="20" blood_bank_name="Sri Venkateswara Institute of Medical sciences Blood Bank" address="Sri Venkateswara Institute of Medical Sciences (SVIMS) Campus; Tirupati" mobile_no="0" latitude="13.6379" longitude="79.4039" type="Blood_Bank" />
<marker sr_no="21" blood_bank_name="Govt Maternity Hospital Blood Bank" address="Ruia Hospital Road; Tirupati" mobile_no="2147483647" latitude="13.6394" longitude="79.4094" type="Blood_Bank" />
<marker sr_no="22" blood_bank_name=" TTD Central Hospital Blood Bank" address="Tirumala Tirupati Devastanam (TTD); Kapil Teertham Road; Tirupati " mobile_no="2147483647" latitude="13.6421" longitude="79.4211" type="Blood_Bank" />
<marker sr_no="23" blood_bank_name="S.V.S. Charitable Trust Blood Bank and Transfusion Centre" address="10-13-514; 1st Floor; Reddy &amp; Reddy Colony; Tirupathi" mobile_no="2147483647" latitude="0" longitude="0" type="Blood_Bank" />
<marker sr_no="24" blood_bank_name="Government Hospital" address="Blood Bank Medical Officer;  Blood Bank; Government Hospital; Amalapuram" mobile_no="2147483647" latitude="16.5874" longitude="82.0084" type="Blood_Bank" />
<marker sr_no="25" blood_bank_name="M/S. Kims &amp; Research Foundation, Hospital Blood Bank" address="Kims &amp; Research Foundation; Hospital Blood Bank; Sy.No:813 &amp; 817; Kamanagaruvu; Near Red Bridge; Amalapuram." mobile_no="2147483647" latitude="16.5922" longitude="82.024" type="Blood_Bank" />
<marker sr_no="26" blood_bank_name="M/s. A.P.V.V.P Area Hospital Blood Bank  " address="Ground Floor Area Hospital; Amalapuram" mobile_no="2147483647" latitude="16.5754" longitude="81.9981" type="Blood_Bank" />
<marker sr_no="27" blood_bank_name="M/s. Government General Hospital, Blood Bank." address="Government General Premises; Ground Floor; Kakinada" mobile_no="2147483647" latitude="16.9555" longitude="82.2275" type="Blood_Bank" />
<marker sr_no="28" blood_bank_name="M/s. Indian Red Cross Society Blood Bank" address="D.No: 8-14-39; Ground &amp; 1st  Floor; Red Cross Street; Gandhi Nagar; Kakinada" mobile_no="2147483647" latitude="16.9891" longitude="82.2475" type="Blood_Bank" />
<marker sr_no="29" blood_bank_name="M/s. Rotary Blood Bank (Rotary Club Golden Jubilee Charitable Trust)" address="Second Floor; D.No:15-8-3; Brahmarishi Road; Satya Prasanna Nagar; Kakinada " mobile_no="2147483647" latitude="0" longitude="0" type="Blood_Bank" />
<marker sr_no="30" blood_bank_name="District Headquarters Hospital" address="Blood Bank Medical Officer; Blood Bank; District Headquarters . Hospital; Rajahmundry" mobile_no="2147483647" latitude="17.0197" longitude="81.7916" type="Blood_Bank" />
<marker sr_no="31" blood_bank_name="M/s. G. S. L. Medical College General Hospital Blood Bank" address="No-16; Lakshmi Puram; Rajanagaram; Rajahmundry." mobile_no="0" latitude="0" longitude="0" type="Blood_Bank" />
<marker sr_no="32" blood_bank_name="M/s. Swatantra Hospital,  Blood Bank" address="D.No: 46-13-31;1st Floor; Gowthami Scan Centre Private Limited; Near Gandhi Park;  Danaviepeta; Rajahmundry." mobile_no="0" latitude="0" longitude="0" type="Blood_Bank" />
<marker sr_no="33" blood_bank_name="M/S. Dhanwantari Voluntary Blood Bank." address="D.No:46-21-1;2nd Floor; Danavaiepeta; Rajahmundry" mobile_no="2147483647" latitude="17.0079" longitude="81.7852" type="Blood_Bank" />
<marker sr_no="34" blood_bank_name="M/s. Government Area General Hospital Blood Bank." address="M/s.Government Area Hospital Blood Bank; Area hospital; Tuni " mobile_no="2147483647" latitude="17.3549" longitude="82.5412" type="Blood_Bank" />
<marker sr_no="35" blood_bank_name="M/s. Sakthi Voluntary Blood Bank (Sakthi Association for Social Awarness)" address="D.No: 3-5-9; Opposite to Raithu Bazar; Lalam Satyanarayana Hospital Street; Tuni " mobile_no="2147483647" latitude="0" longitude="0" type="Blood_Bank" />
<marker sr_no="36" blood_bank_name="Government General Hospital Blood Bank" address="Opposite to Railway Station; 1st Floor; C/o Government General Hospital; Guntur. " mobile_no="2147483647" latitude="16.2997" longitude="80.4437" type="Blood_Bank" />
<marker sr_no="37" blood_bank_name="Indian Red Cross Society" address="Blood Bank Medical Officer; Blood Bank; Indian Red Cross Society; Guntur; District Guntur" mobile_no="2147483647" latitude="16.3067" longitude="80.4365" type="Blood_Bank" />
<marker sr_no="38" blood_bank_name="Indian Red Cross Society Blood Bank " address="Zilla Parishad Compound; Nagarampalem; GUNTUR " mobile_no="2147483647" latitude="16.3067" longitude="80.4365" type="Blood_Bank" />
<marker sr_no="39" blood_bank_name="Lions Club of Guntur Vision Blood Bank" address="1st Floor; Somuvari Street; Kothapeta; Guntur" mobile_no="2147483647" latitude="0" longitude="0" type="Blood_Bank" />
<marker sr_no="40" blood_bank_name="Padmavathi Day &amp; Night Blood Bank" address="Opposite to Head Post Office; Behind Veterinary Hospital; Kothapeta " mobile_no="0" latitude="0" longitude="0" type="Blood_Bank" />
<marker sr_no="41" blood_bank_name="M/s. Needs Blood Bank " address="1st Floor; Honda Show Room Building; Opposite Doctor Plaza; Kothapeta " mobile_no="2147483647" latitude="16.2988" longitude="80.4489" type="Blood_Bank" />
<marker sr_no="42" blood_bank_name="M/s. Sri Lakshmi Maternity &amp; Surgical Nursing Home Blood Bank " address="4th Floor; Behind Sivalayam Temple; Kothapeta " mobile_no="0" latitude="0" longitude="0" type="Blood_Bank" />
<marker sr_no="43" blood_bank_name="Saint Joseph General Hospital Blood Bank" address="Opposite to Andhra Christian College; Near Flyover; Main Road; Guntur " mobile_no="2147483647" latitude="16.2975" longitude="80.4407" type="Blood_Bank" />
<marker sr_no="44" blood_bank_name="NTR Memorial Trust Blood Bank" address="Door No. 13-2-87; 1st Line G. V. Thota" mobile_no="0" latitude="0" longitude="0" type="Blood_Bank" />
<marker sr_no="45" blood_bank_name="Katuri Medical College and Hospital Blood Bank " address="Katuri Nagar; Chinakondrupadu; Guntur " mobile_no="0" latitude="16.2279" longitude="80.3095" type="Blood_Bank" />
<marker sr_no="46" blood_bank_name="NRI Medical College and General Hospital Blood Bank" address="Mangalagiri Mandalam; Chinakakani; Guntur " mobile_no="2147483647" latitude="16.4137" longitude="80.5557" type="Blood_Bank" />
<marker sr_no="47" blood_bank_name="Manipal Hospital Bloodbank" address="Soumyanagar; Tadepalli; Guntur" mobile_no="0" latitude="16.4844" longitude="80.6172" type="Blood_Bank" />
<marker sr_no="48" blood_bank_name="Indian Red Cross Society Blood Bank. Narassraopet" address="Area Hospital; Narasaraopeta " mobile_no="2147483647" latitude="16.2359" longitude="80.0484" type="Blood_Bank" />
<marker sr_no="49" blood_bank_name="NRT Blood Bank" address="GBR Super Speciality Hospital; 10-1-10/1; Palnadu Road; Narasaraopeta " mobile_no="2147483647" latitude="16.1933" longitude="80.02" type="Blood_Bank" />
<marker sr_no="50" blood_bank_name="Anjireddy Multi Specality Blood Bank " address="Gaganamma Temple; Piduguralla " mobile_no="2147483647" latitude="16.4788" longitude="79.8936" type="Blood_Bank" />
<marker sr_no="51" blood_bank_name="Red Cross Blood Bank" address=" Government Hospital Premises  Repalle-522265  Guntur Dist;A.P " mobile_no="2147483647" latitude="16.0174" longitude="80.8295" type="Blood_Bank" />
<marker sr_no="52" blood_bank_name="Area Hospital (Repeated)" address="Blood Bank Medical Officer;  Blood Bank; Area Hospital; Tenali; Guntur District" mobile_no="2147483647" latitude="16.2395" longitude="80.6493" type="Blood_Bank" />
<marker sr_no="53" blood_bank_name="APVVP District Hospital Blood Bank" address="APVVP District Hospital Premises; Chenchupeta; Tenali; Guntur" mobile_no="0" latitude="0" longitude="0" type="Blood_Bank" />
<marker sr_no="54" blood_bank_name="Rudhira Voluntary Blood Bank" address="D.No. 7-5-56; KRR Complex; 1st Floor; Opposite ASN college; Prakasam Road; Ganganammapeta; Tenali" mobile_no="2147483647" latitude="16.2434" longitude="80.6464" type="Blood_Bank" />
<marker sr_no="55" blood_bank_name="Best Rotary Blood Bank" address="Mahila Mandali Building; Sarojini Naidu Street; Kothapeta; Tenali  " mobile_no="2147483647" latitude="16.2512" longitude="80.6493" type="Blood_Bank" />
<marker sr_no="56" blood_bank_name="Area Hospital Blood Bank" address="Gudivada" mobile_no="2147483647" latitude="16.349" longitude="81.0497" type="Blood_Bank" />
<marker sr_no="57" blood_bank_name="Dr. Pattabhi Red Cross Blood Bank " address="DM &amp; HO Campus; Machilipatnam" mobile_no="0" latitude="16.1905" longitude="81.1362" type="Blood_Bank" />
<marker sr_no="58" blood_bank_name="Government General Hospital (Repeated)" address="Government General Hospital; Ramavarapadu; Vijayawada - 520007" mobile_no="2147483647" latitude="16.5133" longitude="80.619" type="Blood_Bank" />
<marker sr_no="59" blood_bank_name="Government District Headquarters Hospital machilipatnam blood bank" address="Machilipatnam" mobile_no="0" latitude="16.1769" longitude="81.1386" type="Blood_Bank" />
<marker sr_no="60" blood_bank_name="Rotary Red Cross Blood Bank" address="H.No: 26-5-5; G.S Raju Street; Gandhinagar; Vijayawada - 520003. Krishna District  " mobile_no="2147483647" latitude="16.5062" longitude="80.648" type="Blood_Bank" />
<marker sr_no="61" blood_bank_name="Vijaya Sri Blood Bank" address="VijayaSri Palace;D. No. 29-19-27/4; Ground Floor; First Floor and Second Floor; Dornakal Road; Suryaraopet; Vijayawada" mobile_no="2147483647" latitude="16.513" longitude="80.6356" type="Blood_Bank" />
<marker sr_no="62" blood_bank_name="Lions Blood Bank" address="D. No. 29-19-85; 1st &amp; 2nd Floor;Old Janatha Hospital Building; Dornakal Road; Suryaraopet; Vijayawada " mobile_no="0" latitude="16.5062" longitude="80.648" type="Blood_Bank" />
<marker sr_no="63" blood_bank_name="University General Hospital Blood Bank" address="Ring Road; Gunadala; Vijayawada" mobile_no="0" latitude="16.5161" longitude="80.6701" type="Blood_Bank" />
<marker sr_no="64" blood_bank_name="M/s. Chaitanya Blood Bank" address="40-9/1-26; Vasavya Complex; Benz Circle; Vijayawada " mobile_no="2147483647" latitude="16.4988" longitude="80.6555" type="Blood_Bank" />
<marker sr_no="65" blood_bank_name="Nagarjuna Hospital Blood Bank" address="Kanuru; Vijayawada" mobile_no="2147483647" latitude="0" longitude="0" type="Blood_Bank" />
<marker sr_no="66" blood_bank_name="Saint Ann&amp;#39;s Hospital Blood Bank  " address="Punnammathota; Bandhar Road; Vijayawada - 2 " mobile_no="0" latitude="0" longitude="0" type="Blood_Bank" />
<marker sr_no="67" blood_bank_name="Rotary Red Cross Blood Bank (Repeated)" address="26-5-5; G.S. Raju Road; Vijayawada " mobile_no="0" latitude="0" longitude="0" type="Blood_Bank" />
<marker sr_no="68" blood_bank_name="Dr. Pinnamaneni Siddhartha Insitiute of Medical Sciences &amp; Research Foundation (Dr.P.SIMS &amp; RF) Blood Bank  " address="Chinnaoutapalli. " mobile_no="0" latitude="16.5517" longitude="80.832" type="Blood_Bank" />
<marker sr_no="69" blood_bank_name="Bethesda Blood Bank" address="29-10-2; Ground Floor; Narsimharao Street; Suryaraopet; Vijayawada " mobile_no="98498" latitude="16.513" longitude="80.6327" type="Blood_Bank" />
<marker sr_no="70" blood_bank_name="Smt CH. Manju Vani Vara Prasad, Lions District 316D Blood Bank " address="H.No.29-4-54K; Conan Dhanvoda Anantham Complex; Prakasam Road; Suryaraopet; Vijayawada" mobile_no="2147483647" latitude="16.5103" longitude="80.6325" type="Blood_Bank" />
<marker sr_no="71" blood_bank_name="Suraksha Voluntary Blood Bank" address="29-10-8; Govinda Rajulu Naidu Street; Suryaraopet; Vijayawada  " mobile_no="2147483647" latitude="16.5134" longitude="80.6329" type="Blood_Bank" />
<marker sr_no="72" blood_bank_name="M/s Ayush Nri Lepl Health Care Private Limited  " address="First Floor; D. No. 40-13-3&amp; 3A; Ring Road; Sriramachandra Nagar; Vijayawada " mobile_no="2147483647" latitude="0" longitude="0" type="Blood_Bank" />
<marker sr_no="73" blood_bank_name="M/s. Nimra Institute of Medical Sciences " address="Ground Floor; Adjacent to Central Lab; Teaching Hospital &amp; Research Centre; Nimranagar; Jupudi; Ibrahimpatmnam; Vijayawada.Krishna " mobile_no="0" latitude="0" longitude="0" type="Blood_Bank" />
<marker sr_no="74" blood_bank_name="RCH -II Blood Bank, Area Hospital, Adoni" address="Dr. H. Siva Reddy; Civil Surgeon RMO (Rtd);Medical Officer  IRCS; RCH-II; Blood Bank; Area Hospital; Adoni-518301" mobile_no="2147483647" latitude="15.6322" longitude="77.2728" type="Blood_Bank" />
<marker sr_no="75" blood_bank_name="M/s. Indian Red Cross Society Blood Bank RCH 2" address="First Floor; Government Area Hospital; Adoni; Kurnool " mobile_no="2147483647" latitude="15.6322" longitude="77.2728" type="Blood_Bank" />
<marker sr_no="76" blood_bank_name="M/s. Government General Hospital Blood Bank" address="kurnool" mobile_no="2147483647" latitude="15.8207" longitude="78.0381" type="Blood_Bank" />
<marker sr_no="77" blood_bank_name="M/s. Indian Red Cross Society Blood Bank" address="Opposite Ravi Theatre; D.M &amp; H.O Compound; Beside Control Room; Kurnool " mobile_no="2147483647" latitude="15.8164" longitude="78.0403" type="Blood_Bank" />
<marker sr_no="78" blood_bank_name="M/s. Viswa Bharathi General Hospital Blood Bank" address="2nd Floor; R. T. Nagar; Near Penchikalapadu (v) Kallur (m); Kurnool " mobile_no="0" latitude="0" longitude="0" type="Blood_Bank" />
<marker sr_no="79" blood_bank_name="M/s. Viswa Bharathi Blood Bank" address="D. No. 50/760-A-127-13;1st Floor (O.P. Block); Gayathri Estate; Kurnool." mobile_no="0" latitude="0" longitude="0" type="Blood_Bank" />
<marker sr_no="80" blood_bank_name="M/s. R.R. Hospital Blood Bank" address="D.No.40-304-10; 2nd Floor; Bhagya Nagar; Kurnool" mobile_no="2147483647" latitude="15.8287" longitude="78.0357" type="Blood_Bank" />
<marker sr_no="81" blood_bank_name="District Hospital Blood Bank " address="District Hospital; Noonepalli; Nandyal; Kurnool " mobile_no="2147483647" latitude="15.4693" longitude="78.4829" type="Blood_Bank" />
<marker sr_no="82" blood_bank_name="M/s. Shantiram Medical College &amp; General Hospital Blood Bank" address="(Shafa Educational Society) NH-18; Nandyal" mobile_no="0" latitude="0" longitude="0" type="Blood_Bank" />
<marker sr_no="83" blood_bank_name="Government Hospital Blood Bank" address="Blood Bank Medical Officer;  Blood Bank; Government Hospital; Srisailam Project; Kurnool District" mobile_no="0" latitude="16.0833" longitude="78.8667" type="Blood_Bank" />
<marker sr_no="84" blood_bank_name="M/s. Area Hospital Blood Bank" address="Ground Floor; Room No.10; Area Hospital; Chirala; Prakasam " mobile_no="2147483647" latitude="15.826" longitude="80.3613" type="Blood_Bank" />
<marker sr_no="85" blood_bank_name="Indian Red Cross Society Blood bank" address="A.P.V.P. Area Hospital; Cumbum Road; Markapur" mobile_no="2147483647" latitude="15.7362" longitude="79.2691" type="Blood_Bank" />
<marker sr_no="86" blood_bank_name="M/s. RIMS General Hospital Blood Bank" address="C/o. RIMS General Hospital ; D.No. 8-5-2/A; Opposite Bapuji Kalamandir; Bhagya Nagar; 5th Lane; Ongole " mobile_no="2147483647" latitude="15.4879" longitude="80.0471" type="Blood_Bank" />
<marker sr_no="87" blood_bank_name="Indian Red Cross Society Blood Bank" address="IRCS Blood Bank; Railway Station Road; SanthaPeta; Ongole; Prakasam " mobile_no="2147483647" latitude="15.5057" longitude="80.0499" type="Blood_Bank" />
<marker sr_no="88" blood_bank_name="M/s. Life Line Volunytary Blood Bank" address="D. No.37-1-169/54; 2nd Floor; Sundharaiah Bhavan Raod; Ongole. " mobile_no="2147483647" latitude="15.4814" longitude="80.0591" type="Blood_Bank" />
<marker sr_no="89" blood_bank_name="M/s. Belief Blood Bank" address="3rd Floor; Sai Complex; Addanki Bus Stop; Ongole " mobile_no="2147483647" latitude="15.4814" longitude="80.0591" type="Blood_Bank" />
<marker sr_no="90" blood_bank_name="Government Hospital Blood Bank" address="Area Hospital Compound; Gudur " mobile_no="2147483647" latitude="14.1465" longitude="79.8488" type="Blood_Bank" />
<marker sr_no="91" blood_bank_name="M/s. Kanamarlapudi Koteswara Rao Indian Red Cross Society (IRCS) (REPEATED)" address="Survey No.1083/3; R.D Office Compound; Kavali." mobile_no="2147483647" latitude="0" longitude="0" type="Blood_Bank" />
<marker sr_no="92" blood_bank_name="M/s. APVVP Area Hospital Blood Bank" address="Area Hospital Compound Kavali" mobile_no="2147483647" latitude="0" longitude="0" type="Blood_Bank" />
<marker sr_no="93" blood_bank_name="M/s. Kanamarlapudi Koteswara Rao Indian Red Cross Society Blood Bank" address="Survey No.1083/3; R.D. Office Compound; Kavali " mobile_no="2147483647" latitude="14.9132" longitude="79.993" type="Blood_Bank" />
<marker sr_no="94" blood_bank_name="Indian Red Cross Society Blood Bank" address="Indian Red Cross Society (IRCS) Road; Madras Bus stand; Nellore   " mobile_no="2147483647" latitude="14.4268" longitude="79.959" type="Blood_Bank" />
<marker sr_no="95" blood_bank_name="District Headquarters Hospital (Repeated)" address="District Headquarters Hospital; Dargamitta; Nellore" mobile_no="2147483647" latitude="14.4354" longitude="79.9668" type="Blood_Bank" />
<marker sr_no="96" blood_bank_name="D.S.R. Headquarters Hospital Blood Bank" address="Government Hospital Compound; Nellore" mobile_no="0" latitude="0" longitude="0" type="Blood_Bank" />
<marker sr_no="97" blood_bank_name="Narayana Medical College &amp; Hospital Blood Bank" address="Narayana Hospital compound; Nellore" mobile_no="0" latitude="14.4426" longitude="79.9865" type="Blood_Bank" />
<marker sr_no="98" blood_bank_name="Gems Hospital Blood Bank" address="Gems Hospital Premises; Ragolu; Srikakulam" mobile_no="2147483647" latitude="18.2891" longitude="83.9056" type="Blood_Bank" />
<marker sr_no="99" blood_bank_name="GMR Varalakshmi Care Hospital Blood Bank" address="GMR Varalakshmi Care Hospital Premises; GMR Nagar; Rajam " mobile_no="0" latitude="18.4613" longitude="83.6584" type="Blood_Bank" />
<marker sr_no="100" blood_bank_name="Rajiv Gandhi Institute of Medical Sciences (RIMS) General Hospital Blood Bank" address="RIMS Government Hospital Premises; Balaga; Srikakulam " mobile_no="2147483647" latitude="18.3129" longitude="83.8877" type="Blood_Bank" />
<marker sr_no="101" blood_bank_name="Indian Red Cross Society (IRCS) Blood Bank" address="D.No. 8-5-2/A; Opposite to Bapuji Kalamandir; Srikakulam   " mobile_no="0" latitude="18.2964" longitude="83.8945" type="Blood_Bank" />
<marker sr_no="102" blood_bank_name="District Hospital" address="AH- ANAKAPALLI" mobile_no="2147483647" latitude="17.6896" longitude="82.9977" type="Blood_Bank" />
<marker sr_no="103" blood_bank_name="M/s. NTR Area Hospital Blood Bank" address="APVVP Hospital Premises; Anakapalli; Visakhapatnam  " mobile_no="2147483647" latitude="17.6864" longitude="83.2186" type="Blood_Bank" />
<marker sr_no="104" blood_bank_name="M/s. Visakha Steel General Hospital Blood Bank" address="Ukkunagaram; Steel Plant; Visakhapatnam" mobile_no="2147483647" latitude="17.6629" longitude="83.1441" type="Blood_Bank" />
<marker sr_no="105" blood_bank_name="M/s. INHS Kalyani Blood Bank" address="INHS Kalyani Hospital; Gandhigram (PO); Visakhapatnam" mobile_no="0" latitude="0" longitude="0" type="Blood_Bank" />
<marker sr_no="106" blood_bank_name="M/s. Anil Neerukonda Hospital  Blood Bank" address="Sangivalasa; Bheemunipatnam (M); Visakhapatnam District " mobile_no="0" latitude="17.9726" longitude="83.4323" type="Blood_Bank" />
<marker sr_no="107" blood_bank_name="M/s. King George Hospital (KGH) Blood Bank " address="King George Hospital; Maharanipeta; Visakhapatnam" mobile_no="2147483647" latitude="17.7067" longitude="83.3037" type="Blood_Bank" />
<marker sr_no="108" blood_bank_name="M/s. Government Victoria Hospital Blood Bank" address="Women &amp; Children Hospital Blood Bank; Visakhapatnam" mobile_no="2147483647" latitude="17.6868" longitude="83.2185" type="Blood_Bank" />
<marker sr_no="109" blood_bank_name="M/s. Indian Red Cross Society Blood Bank " address="D.No:14-35-4; Behind Collecorate; Z..P. Junction; Maharanipeta; Visakhapatnam " mobile_no="2147483647" latitude="17.6868" longitude="83.2185" type="Blood_Bank" />
<marker sr_no="110" blood_bank_name="M/s. Rotary Blood Bank (Vishaka Port City Rotary Charitable Trust)" address="D.No: 13-26-2/54; 3rd Floor; Apuroopa Arcade; Near Jagadamba Junction; Maharanipeta; Vishakapatnam " mobile_no="2147483647" latitude="17.6868" longitude="83.2185" type="Blood_Bank" />
<marker sr_no="111" blood_bank_name="M/s. Apollo Hospital Heart &amp; Kidney Centre Blood Bank" address="D.No.10-50-80; 1st Floor; Apollo Hospital; Waltair Main Road; Visakhapatnam.  " mobile_no="0" latitude="17.7171" longitude="83.3092" type="Blood_Bank" />
<marker sr_no="112" blood_bank_name="M/s. Seven Hills Hospital Blood Bank" address="D.No.11-4-4/A; 5th Floor; Rock Dale Layout; Waltair MainRoad; Visakhapatnam " mobile_no="2147483647" latitude="17.7174" longitude="83.3093" type="Blood_Bank" />
<marker sr_no="113" blood_bank_name=" A. S. Raja Voluntary Blood Bank" address="D.No. 10-50-11/5; Ground Floor; 1st; 2nd and 3rd Floor; Beside CARE Hospital; Waltair Main Road; Ramnagar; Visakhapatnam " mobile_no="2147483647" latitude="17.7203" longitude="83.313" type="Blood_Bank" />
<marker sr_no="114" blood_bank_name="M/s. Lions Club of Visakhapatnam Blod Bank Trust  " address="D. No.10-54-7; Lions Community Hall; Ram Nagar; Visakhapatnam " mobile_no="917" latitude="17.7191" longitude="83.3113" type="Blood_Bank" />
<marker sr_no="115" blood_bank_name="M/s. N.T.R. Memorial Trust Blood Bank " address="P. No. 15B-3-1; Block No. 56; Waltair Main Road; Ramnagar; Visakhapatnam " mobile_no="2147483647" latitude="17.6916" longitude="83.2389" type="Blood_Bank" />
<marker sr_no="116" blood_bank_name="M/s. Gitam Institute of Medical Sciences and Research Blood Bank " address="D.No.5-168; Ward No.6; Gitam University; Rushikonda; Visakhapatnam " mobile_no="2147483647" latitude="17.7849" longitude="83.375" type="Blood_Bank" />
<marker sr_no="117" blood_bank_name="M/s. Gayatri Vidya Parishad Institute of Health Care and Medical Technology" address="D. No.6-25; Maridi Valley; Marikavalasa; Madhurawada; Vishakapatnam " mobile_no="2147483647" latitude="17.6894" longitude="83.2116" type="Blood_Bank" />
<marker sr_no="118" blood_bank_name="Indian Red Cross Society Blood Bank, RCH-II" address="Area Hospital Premises; First Floor; Belagam; Parvathipuram " mobile_no="2147483647" latitude="18.7817" longitude="83.4268" type="Blood_Bank" />
<marker sr_no="119" blood_bank_name="District Headquarters Hospital Blood Bank" address="District Headquarters Hospital; Cantonment; Vizianagaram " mobile_no="2147483647" latitude="18.11" longitude="83.3884" type="Blood_Bank" />
<marker sr_no="120" blood_bank_name="Indian Red Cross Society Blood Bank" address="D.No. 71/82; Near Ganesh Temple; Cantonment;  Vizianagaram" mobile_no="2147483647" latitude="18.1067" longitude="83.3956" type="Blood_Bank" />
<marker sr_no="121" blood_bank_name="Srinivasa Nursing Home Blood Bank " address="Ground Floor; Plot No. 06; Arundati Nagar; Opposite to Goods Shed; Cantonment; Vizianagaram" mobile_no="2147483647" latitude="0" longitude="0" type="Blood_Bank" />
<marker sr_no="122" blood_bank_name="Maharaja Institute of Medical Sciences Blood Bank" address="D.No. 31-15; Nellimarla; Vizianagaram" mobile_no="2147483647" latitude="0" longitude="0" type="Blood_Bank" />
<marker sr_no="123" blood_bank_name="ASN Raju Charitable Trust Blood Bank" address="D.No. 24-1-1; R.K. Plaza (Sarovar complex); J. P. Raod; Bhimavaram " mobile_no="2147483647" latitude="16.5439" longitude="81.5162" type="Blood_Bank" />
<marker sr_no="124" blood_bank_name="Uddaraju Anandaraju Foundation Blood Bank" address="D.No. 27-8-21/2; Sivaraopet; Bhimavaram" mobile_no="2147483647" latitude="16.5431" longitude="81.5157" type="Blood_Bank" />
<marker sr_no="125" blood_bank_name="M/s. Government Headquarters Hospital Blood Bank" address="Government Headquarters Hospital; Ground Floor; R.R. Peta; Eluru; West Godavari" mobile_no="0" latitude="17.0062" longitude="81.7821" type="Blood_Bank" />
<marker sr_no="126" blood_bank_name="M/s. Indian Red Cross Society Component Blood Bank" address=" General Hospital Premises; Eluru; West Godavai " mobile_no="2147483647" latitude="16.7119" longitude="81.0948" type="Blood_Bank" />
<marker sr_no="127" blood_bank_name="M/s. Alluri Sitrarama Raju Academy of Medical Sciences Blood Bank" address="Ground Floor; Hospital Block; NH 5 Eluru; West Godavari  " mobile_no="2147483647" latitude="16.7374" longitude="81.1465" type="Blood_Bank" />
<marker sr_no="128" blood_bank_name="M/s. Good Samaritan Blood Bank" address="D.No.13-1; Good Samaritan Cancer and General Hospital; Vangayagudem; Eluru; West Godavari " mobile_no="2147483647" latitude="18.1797" longitude="83.3955" type="Blood_Bank" />
<marker sr_no="129" blood_bank_name="M/s. Indian Red Cross Society Blood Bank jangareddi gudem" address="Government Hospital Premises; Jangareddygudem" mobile_no="2147483647" latitude="17.1253" longitude="81.2739" type="Blood_Bank" />
<marker sr_no="130" blood_bank_name="Indian Red Cross Society Blood Bank narasapuram" address="C/o. Community Healthcare Center; Narsapuram" mobile_no="2147483647" latitude="16.452" longitude="81.6802" type="Blood_Bank" />
<marker sr_no="131" blood_bank_name="Palakol Voluntary Blood Bank" address="D.No. 47-1-12/2C; 1st floor; Beside Chamber of Commerce Building; Srinivasa Deluxe; Palakol " mobile_no="2147483647" latitude="16.5175" longitude="81.7253" type="Blood_Bank" />
<marker sr_no="132" blood_bank_name="Indian Red Cross Society Blood Bank Tanuku  (Repeated)" address="IRCS Sub Branch Doorno 27-14-9; Dodipatlavari Street;  Tanuku; West Godavari District " mobile_no="0" latitude="16.7572" longitude="81.68" type="Blood_Bank" />
<marker sr_no="133" blood_bank_name="Dr. Mulla Pudi Harischandra Prasad Red Cross Blood Bank" address="D.No.27-14-9; Doddipatla Vari Street; Tanuku." mobile_no="2147483647" latitude="16.7572" longitude="81.68" type="Blood_Bank" />
<marker sr_no="134" blood_bank_name="Sri Buddala Narasimhamurty Voluntary Blood Bank" address="D.No.34-4/5; Ground Floor; Supriya Towers; Tanuku " mobile_no="2147483647" latitude="16.414" longitude="80.6471" type="Blood_Bank" />
<marker sr_no="135" blood_bank_name="Rajiv Gandhi Institute of Medical Sciences Blood Bank" address="Blood Bank Medical Officer; O.P. Block Ground Floor; Blood Bank; RIMS General Hospital;Puttlampalli; Kadapa ( RIMS; Kadapa)." mobile_no="2147483647" latitude="15.1334" longitude="78.5141" type="Blood_Bank" />
<marker sr_no="136" blood_bank_name="Indian Red Cross Society, Blood Bank" address="D.No. 10-971; Opposite to Mattipedda Puli; Trunk Road; Kadapa " mobile_no="2147483647" latitude="14.4674" longitude="78.8241" type="Blood_Bank" />
<marker sr_no="137" blood_bank_name="Boga Parvathamma Blood Bank " address="A unit of boga parvathamma memorial blood donation service organization; d.no:7-137; second floor; jayanagar colony ; Kadapa   " mobile_no="2147483647" latitude="14.4674" longitude="78.8241" type="Blood_Bank" />
<marker sr_no="138" blood_bank_name="Rajiv Gandhi Institute of Medical Sciences Blood Bank " address="RIIMS General Hospital ;Ground Floor; Putlam Palli Kadapa" mobile_no="2147483647" latitude="0" longitude="0" type="Blood_Bank" />
<marker sr_no="139" blood_bank_name="Fathima Institute of Medical Sciences Blood Bank" address="Ramarajupalli; Pulivendula Road Kadapa" mobile_no="2147483647" latitude="0" longitude="0" type="Blood_Bank" />
<marker sr_no="140" blood_bank_name="District Hospital Blood Bank " address="APVVP; Gavini Circle; Yerraguntla Bypass Road; Proddatur" mobile_no="2147483647" latitude="14.7416" longitude="78.551" type="Blood_Bank" />
<marker sr_no="141" blood_bank_name="A.P Vaidyavidhanaparishad Area Hospital Blood Bank" address="Proddatur; YSR" mobile_no="2147483647" latitude="0" longitude="0" type="Blood_Bank" />
<marker sr_no="142" blood_bank_name="A.P. Vaidyavidhanaparishad Area Hospital - IRCS Blood Bank " address="Ground Floor; Muddanuru Road; Pulivendula" mobile_no="2147483647" latitude="14.4222" longitude="78.2263" type="Blood_Bank" />
<marker sr_no="143" blood_bank_name="Changlang District Hospital Blood Bank" address="District Hospital; Changlang District; Arunachal Pradesh" mobile_no="2147483647" latitude="27.1393" longitude="95.7388" type="Blood_Bank" />
<marker sr_no="144" blood_bank_name="Pasighat General Hospital Blood Bank" address="General Hospital; Pasighat;  Jt. DHS (T&amp;R); High Region; Near NH 52. " mobile_no="2147483647" latitude="28.0715" longitude="95.3251" type="Blood_Bank" />
<marker sr_no="145" blood_bank_name="Lohit District Hospital Blood Bank" address="District Hospital Tezu; Lohit District; Arunachal Pradesh" mobile_no="2147483647" latitude="27.5596" longitude="96.1016" type="Blood_Bank" />
<marker sr_no="146" blood_bank_name="General Hospital Ziro  Blood Bank" address="General Hospital Ziro; Lower Subansiri   " mobile_no="2147483647" latitude="27.5387" longitude="93.8222" type="Blood_Bank" />
<marker sr_no="147" blood_bank_name="Ramakrishna Mission Hospital Blood bank" address="Ramakrishna Mission Hospital  P.O. Ramakrishna Mission Itanagar; " mobile_no="943" latitude="27.0862" longitude="93.6091" type="Blood_Bank" />
<marker sr_no="148" blood_bank_name="Arunachal State Hospital Blood Bank" address="Arunachal State Hospital / General Hospital; NH 52A; Lumer Dai Road" mobile_no="2147483647" latitude="27.1031" longitude="93.6919" type="Blood_Bank" />
<marker sr_no="149" blood_bank_name="Tawang District Hospital Blood Bank" address="District Hospital; Tawang District ; Arunachal Pradesh" mobile_no="2147483647" latitude="27.5889" longitude="91.8649" type="Blood_Bank" />
<marker sr_no="150" blood_bank_name="Tawang District Hospital Blood Bank " address="Bomdila;Tawang" mobile_no="2147483647" latitude="0" longitude="0" type="Blood_Bank" />
<marker sr_no="151" blood_bank_name="District Hospital Blood Bank" address="Roing;Tezu; Upper Siang" mobile_no="0" latitude="0" longitude="0" type="Blood_Bank" />
<marker sr_no="152" blood_bank_name="Upper Siang District Hospital Blood Bank" address="District Hospital; Yingkiong; Upper Siang District;  Arunachal Pradesh." mobile_no="2147483647" latitude="28.6417" longitude="95.0253" type="Blood_Bank" />
<marker sr_no="153" blood_bank_name="Upper Subansiri District Hospital Blood Bank" address="District Hospital Daporijo; Upper Subansiri District;  Arunachal Pradesh" mobile_no="2147483647" latitude="27.9813" longitude="94.2174" type="Blood_Bank" />
<marker sr_no="154" blood_bank_name="West Siang District Hospital Blood Bank" address="District Hospital; Medical Complex; Aalo" mobile_no="2147483647" latitude="28.1693" longitude="94.801" type="Blood_Bank" />
<marker sr_no="155" blood_bank_name="Fakhruddin Ali Ahmed (FAA) Medical College Hospital Blood Bank" address="Ground Floor  Fakhruddin Ali Ahmed Medical College; Jotigaon; Jania Road. Opposite to Chaulkhowa River " mobile_no="2147483647" latitude="26.3238" longitude="90.9867" type="Blood_Bank" />
<marker sr_no="156" blood_bank_name="Bongaigaon Civil Hospital Blood Bank" address="Main Road; Mayapuri;Bongaigaon" mobile_no="2147483647" latitude="26.4567" longitude="90.5602" type="Blood_Bank" />
<marker sr_no="157" blood_bank_name="Lower Assam Hospital Blood Bank" address="Chapaguri Road; North Bongaigaon" mobile_no="2147483647" latitude="26.4929" longitude="90.5515" type="Blood_Bank" />
<marker sr_no="158" blood_bank_name="Silchar Medical College and Hospital Blood Bank" address="Krishnapur Medical Road; Ghungoor; Silchar " mobile_no="2147483647" latitude="24.7756" longitude="92.7943" type="Blood_Bank" />
<marker sr_no="159" blood_bank_name="Indian Red Cross Children Hospital Blood Bank" address="Indian Red Cross Children Hospital; Tarapur; Silchar" mobile_no="2147483647" latitude="24.8261" longitude="92.7962" type="Blood_Bank" />
<marker sr_no="160" blood_bank_name="Barak Blood Bank and Clinical Research Centre" address="Central Rd; Tarapur; Kanakpur Part-II" mobile_no="2147483647" latitude="24.808" longitude="92.7952" type="Blood_Bank" />
<marker sr_no="161" blood_bank_name="Bongaigaon Refinery (BRPL) Hospital Blood Bank " address="BRPL Refinery; iocl/bgr township" mobile_no="2147483647" latitude="26.5106" longitude="90.5227" type="Blood_Bank" />
<marker sr_no="162" blood_bank_name="Mangaldoi Civil Hospital Blood Bank" address="Mangaldoi Civil Hospital; NH 52; Mangaldoi; Darrang" mobile_no="2147483647" latitude="26.4376" longitude="92.0364" type="Blood_Bank" />
<marker sr_no="163" blood_bank_name="Dhemaji Civil Hospital Blood Bank" address="Ward No:9; Lachit Nagar; Natun Nagar Rd" mobile_no="2147483647" latitude="27.458" longitude="94.5745" type="Blood_Bank" />
<marker sr_no="164" blood_bank_name="Dhubri Civil Hospital Blood Bank" address="Jhagrarpar; Dhubri" mobile_no="2147483647" latitude="26.0344" longitude="89.9636" type="Blood_Bank" />
<marker sr_no="165" blood_bank_name="Assam Medical College and Hospital Blood Bank" address="Barbari; Dibrugarh" mobile_no="2147483647" latitude="27.487" longitude="94.9442" type="Blood_Bank" />
<marker sr_no="166" blood_bank_name="Dr. Damani&amp;#39;s Nursing Home Blood Bank" address="L.G.B. Avenue; Near Circuit House" mobile_no="2147483647" latitude="27.4899" longitude="94.923" type="Blood_Bank" />
<marker sr_no="167" blood_bank_name="Aditya Diagnostic Hospital Blood Bank" address="Bordoloi Avenue; Dibrugarh" mobile_no="2147483647" latitude="27.4914" longitude="94.9311" type="Blood_Bank" />
<marker sr_no="168" blood_bank_name="Sri Manta Sankardeva Hospital and Research Centre Blood Bank" address="Chowkindinge; Mancotta Road" mobile_no="2147483647" latitude="0" longitude="0" type="Blood_Bank" />
<marker sr_no="169" blood_bank_name="Dirial Central Hospital Blood Bank" address="Diral Tea estate; Hoogrijan" mobile_no="2147483647" latitude="0" longitude="0" type="Blood_Bank" />
<marker sr_no="170" blood_bank_name="Oil India Limited Hospital Blood Bank" address="Oil Hospital; Duliajan" mobile_no="2147483647" latitude="27.3592" longitude="95.3236" type="Blood_Bank" />
<marker sr_no="171" blood_bank_name="Haflong Civil Hospital Blood Bank " address="NH 54; Songpijaang; Haflong" mobile_no="2147483647" latitude="25.1657" longitude="93.0248" type="Blood_Bank" />
<marker sr_no="172" blood_bank_name="Goalpara Civil Hospital Blood Bank" address="Agia Road; Goalpara" mobile_no="2147483647" latitude="26.1423" longitude="90.6106" type="Blood_Bank" />
<marker sr_no="173" blood_bank_name="Solace Hospital and Research centre Pvt.Ltd Blood bank" address="BOC Agia Road Road; P.O. Baladmari Opposite to Assam Oil Petrol Pump" mobile_no="2147483647" latitude="26.1646" longitude="90.6249" type="Blood_Bank" />
<marker sr_no="174" blood_bank_name="Kushal Konwar (KK) Civil Hospital Blood Bank" address="Abita Building; 1st floor;  Golaghat Near stataion Rd " mobile_no="2147483647" latitude="26.5102" longitude="93.9646" type="Blood_Bank" />
<marker sr_no="175" blood_bank_name="Vivekananda Kendra NRL Hospital Blood Bank" address="NRL Township; Numaligarh Refinery Complex" mobile_no="2147483647" latitude="26.5914" longitude="93.7495" type="Blood_Bank" />
<marker sr_no="176" blood_bank_name="S. K. Roy Civil Hospital Blood Bank " address="Hailakandi Civil Hospital; NH 154; Bashdahar; Hailakandi" mobile_no="2147483647" latitude="24.6718" longitude="92.5634" type="Blood_Bank" />
<marker sr_no="177" blood_bank_name="Jorhat Medical College and Hospital Blood Bank " address="Telemedicine Department; KB Road; Kushal Nagar; Tarajan" mobile_no="2147483647" latitude="26.7426" longitude="94.1951" type="Blood_Bank" />
<marker sr_no="178" blood_bank_name="Air Force Hospital Blood Bank" address="Air Force station; Jorhat; 5; C/O 99 APO" mobile_no="2147483647" latitude="0" longitude="0" type="Blood_Bank" />
<marker sr_no="179" blood_bank_name="Greater Jorhat Lions Blood Bank" address="Lions Multiple Service Centre; Sonali Jayanti Nagar" mobile_no="2147483647" latitude="26.7531" longitude="94.186" type="Blood_Bank" />
<marker sr_no="180" blood_bank_name="Mahendra Mohan Choudhury (MMC) Hospital  Blood Bank" address="Panbazar; Guwahati" mobile_no="2147483647" latitude="26.1855" longitude="91.7405" type="Blood_Bank" />
<marker sr_no="181" blood_bank_name="Dispur Blood Bank" address="Ganeshguri; Dispur" mobile_no="2147483647" latitude="26.1498" longitude="91.7866" type="Blood_Bank" />
<marker sr_no="182" blood_bank_name="Saharia&amp;#39;s Path Lab &amp; Blood Bank" address="Guwahati - Shillong Rd; Near Petrol Pump; ABC; Bhangagarh Opposite Anil Plaza" mobile_no="2147483647" latitude="26.1627" longitude="91.7707" type="Blood_Bank" />
<marker sr_no="183" blood_bank_name="International Hospital Blood Bank" address="Lotus Tower; G.S. Road; Christian Basti" mobile_no="2147483647" latitude="26.1541" longitude="91.7813" type="Blood_Bank" />
<marker sr_no="184" blood_bank_name="Hayat Hospital Blood Bank" address="Odalbakra; Lalganesh" mobile_no="2147483647" latitude="26.1392" longitude="91.7462" type="Blood_Bank" />
<marker sr_no="185" blood_bank_name="Rahman Hospital Private Limited Blood Bank" address="VIP Road; Sixmile; Khanapara; " mobile_no="2147483647" latitude="26.1351" longitude="91.8094" type="Blood_Bank" />
<marker sr_no="186" blood_bank_name="GNRC Institute of Medical Sciences Blood bank" address="Sila Grant Town; North Guwahati ; Near IIT Guwahati" mobile_no="2147483647" latitude="26.2022" longitude="91.6933" type="Blood_Bank" />
<marker sr_no="187" blood_bank_name="Central Hospital N. F. Railway Blood Bank" address="PNGB Road; Near Kamakhya Railway Station; Maligaon; Guwahati" mobile_no="2147483647" latitude="26.1519" longitude="91.6949" type="Blood_Bank" />
<marker sr_no="188" blood_bank_name="G.N.R.C. Hospital Blood Bank" address="Dispur; Guwahati" mobile_no="2147483647" latitude="26.1391" longitude="91.794" type="Blood_Bank" />
<marker sr_no="189" blood_bank_name="Guwahati Medical College and Hospital (GMCH) State of The Art Model Blood Bank" address="GMCH Complex; GMCH Rd; Bhangagarh; Guwahati" mobile_no="2147483647" latitude="26.1599" longitude="91.7685" type="Blood_Bank" />
<marker sr_no="190" blood_bank_name="Dr. B. Borooah Cancer Institute Blood Bank" address="Gopinath Nagar; Birubari; Guwahati" mobile_no="2147483647" latitude="26.1651" longitude="91.7477" type="Blood_Bank" />
<marker sr_no="191" blood_bank_name="Assam Gujarat Voluntary Blood Bank and Research Centre" address="33; Anil Mazamill Road; Lane opposite to Apsara Cinema;  Manipuri Basti" mobile_no="2147483647" latitude="26.1767" longitude="91.7538" type="Blood_Bank" />
<marker sr_no="192" blood_bank_name="Down Town Hospital Blood Bank " address="4th Floor; Buiding No:1; G.S. Road; Dispur" mobile_no="2147483647" latitude="26.1362" longitude="91.7968" type="Blood_Bank" />
<marker sr_no="193" blood_bank_name="Ganga Hospital Blood Bank" address="G. S. Road; Lachit Nagar; Ulubari;  Near KFC; Neubari" mobile_no="2147483647" latitude="26.1721" longitude="91.76" type="Blood_Bank" />
<marker sr_no="194" blood_bank_name=" Surakhya  Blood Bank " address="Arya Hospital complex; A.M. Road; Rehabri Opposite Apsara Cinema Hall" mobile_no="2147483647" latitude="26.1751" longitude="91.7526" type="Blood_Bank" />
<marker sr_no="195" blood_bank_name="Marwari Hospital and Research Centre Blood Bank" address="Sati Jaymati Road; Athgaon" mobile_no="2147483647" latitude="26.172" longitude="91.7401" type="Blood_Bank" />
<marker sr_no="196" blood_bank_name="151 Base Hospital Blood Bank" address="Basistha; Guwahati" mobile_no="2147483647" latitude="26.1042" longitude="91.7962" type="Blood_Bank" />
<marker sr_no="197" blood_bank_name="Sanjevani Hospital Blood Bank" address="Maligaon;  Guwahati" mobile_no="2147483647" latitude="26.1612" longitude="91.7094" type="Blood_Bank" />
<marker sr_no="198" blood_bank_name="Narayana Hrudayalaya Limited Blood Bank" address="Tularam Bafana Civil Hospital Campus; North Guwahati; Amingaon." mobile_no="2147483647" latitude="26.2078" longitude="91.6782" type="Blood_Bank" />
<marker sr_no="199" blood_bank_name="Diphu Civil Hospital Blood Bank" address="Diphu; Karbi Anglong" mobile_no="2147483647" latitude="25.8443" longitude="93.4338" type="Blood_Bank" />
<marker sr_no="200" blood_bank_name="Karimganj Civil Hospital Blood Bank" address="Karimganj" mobile_no="2147483647" latitude="24.8676" longitude="92.3618" type="Blood_Bank" />
<marker sr_no="201" blood_bank_name="R.N.B. Civil Hospital Blood Bank" address="Habrubil; Gossaigaon; Kokrajhar" mobile_no="2147483647" latitude="26.4529" longitude="89.9764" type="Blood_Bank" />
<marker sr_no="202" blood_bank_name="North Lakhimpur Civil Hospital Blood Bank" address="North Lakhimpur" mobile_no="2147483647" latitude="27.2427" longitude="94.1065" type="Blood_Bank" />
<marker sr_no="203" blood_bank_name="Morigaon Civil Hospital Blood Bank" address="KK Handique Path; Ward Number 7; Rajagaon; " mobile_no="2147483647" latitude="26.2516" longitude="92.3545" type="Blood_Bank" />
<marker sr_no="204" blood_bank_name="Haji Abdul Majid Memorial Hospital and Research Centre Blood Bank" address="Hojai; Nagaon" mobile_no="2147483647" latitude="26.016" longitude="92.8682" type="Blood_Bank" />
<marker sr_no="205" blood_bank_name="Divisional Railway Headquarters Hospital Blood Bank" address="Lumding  " mobile_no="2147483647" latitude="0" longitude="0" type="Blood_Bank" />
<marker sr_no="206" blood_bank_name="B.P. Civil Hospital Blood Bank" address="Civil Road; Nagaon" mobile_no="2147483647" latitude="26.3449" longitude="92.6895" type="Blood_Bank" />
<marker sr_no="207" blood_bank_name="North East Blood Bank and Research Centre" address="N.H. 37; Haibargaon; " mobile_no="2147483647" latitude="26.3443" longitude="92.681" type="Blood_Bank" />
<marker sr_no="208" blood_bank_name="S. M. K. Civil Hospital Blood Bank " address="Maszid Road " mobile_no="2147483647" latitude="26.4482" longitude="91.4356" type="Blood_Bank" />
<marker sr_no="209" blood_bank_name="Nalbari Maternity Hospital Blood Bank" address="Alternative Road" mobile_no="2147483647" latitude="26.4406" longitude="91.4358" type="Blood_Bank" />
<marker sr_no="210" blood_bank_name="O.N.G.C. Limited Hospital Blood Bank" address="Sivasagar " mobile_no="2147483647" latitude="26.9812" longitude="94.6518" type="Blood_Bank" />
<marker sr_no="211" blood_bank_name="Pragati Hospital and Research Centre Blood Bank" address="A.T. Road; Sivsagar" mobile_no="2147483647" latitude="26.9979" longitude="94.6198" type="Blood_Bank" />
<marker sr_no="212" blood_bank_name="Sivasagar Civil Hospital Blood Bank" address="Joysagar" mobile_no="2147483647" latitude="26.9552" longitude="94.6111" type="Blood_Bank" />
<marker sr_no="213" blood_bank_name="Catholic Hospital Blood Bank" address="Borgang" mobile_no="2147483647" latitude="26.8153" longitude="93.3202" type="Blood_Bank" />
<marker sr_no="214" blood_bank_name="Kanaklata Civil Hospital Blood Bank" address="Main Road; Tezpur" mobile_no="2147483647" latitude="26.6285" longitude="92.7965" type="Blood_Bank" />
<marker sr_no="215" blood_bank_name="155 Base Hospital Blood Bank" address="Tezpur  " mobile_no="2147483647" latitude="26.6554" longitude="92.7873" type="Blood_Bank" />
<marker sr_no="216" blood_bank_name="Tezpur Medical College Hospital Blood Bank " address="Bihaguri" mobile_no="2147483647" latitude="26.681" longitude="92.6534" type="Blood_Bank" />
<marker sr_no="217" blood_bank_name="Indian Oil Corp Ltd (AOD) Hospital blood bank" address="IOCL; Assam Division; Digboi" mobile_no="2147483647" latitude="27.3929" longitude="95.6294" type="Blood_Bank" />
<marker sr_no="218" blood_bank_name="Central Hospital  Coal India Limited" address="Coal India Limited; Margerita" mobile_no="2147483647" latitude="27.2893" longitude="95.6748" type="Blood_Bank" />
<marker sr_no="219" blood_bank_name="Tinsukia Civil Hospital Blood Bank" address="Bordoloi Nagar; Tinsukia" mobile_no="2147483647" latitude="27.4986" longitude="95.3589" type="Blood_Bank" />
<marker sr_no="220" blood_bank_name="Tinsukia Blood Bank" address="S.R. Lohia Road; Chiravapathy; IMA House; Tinsukia" mobile_no="2147483647" latitude="27.4904" longitude="95.363" type="Blood_Bank" />
<marker sr_no="221" blood_bank_name="Sadar Hospital Aurangabad Blood Bank" address="Old  G.T. Road" mobile_no="0" latitude="0" longitude="0" type="Blood_Bank" />
<marker sr_no="222" blood_bank_name="Meera Nursing Home Blood Bank and Research Centre" address="Pokharia Rd; Chitragupta Nagar; Begusarai;" mobile_no="2147483647" latitude="0" longitude="0" type="Blood_Bank" />
<marker sr_no="223" blood_bank_name="Rastra Kavi Dinkar Blood Bank" address="Sadar Hospital; Begusarai  " mobile_no="2147483647" latitude="25.4138" longitude="86.136" type="Blood_Bank" />
<marker sr_no="224" blood_bank_name="Deshratna Rajendra Prasad Memorial Rotary Blood Bank" address="Kali Asthan;  P. O. Pokhanlya  " mobile_no="2147483647" latitude="0" longitude="0" type="Blood_Bank" />
<marker sr_no="225" blood_bank_name="Jawaharlal Nehru Medical College Hospital (JNMCH) Blood Bank" address="Mayaganj; Tilkamanjhi; " mobile_no="2147483647" latitude="25.2642" longitude="87.0021" type="Blood_Bank" />
<marker sr_no="226" blood_bank_name="Sadar Hospital Ara (Bhojpur) Blood bank" address="Sapna Cinema Road; Nawada;" mobile_no="2147483647" latitude="25.5598" longitude="84.6676" type="Blood_Bank" />
<marker sr_no="227" blood_bank_name="Sadar Hospital Ara Blood Bank" address="Sadar Hospital Ara Blood Bank; Shivganj " mobile_no="2147483647" latitude="25.5585" longitude="84.6706" type="Blood_Bank" />
<marker sr_no="228" blood_bank_name="Maa Vindhyawasini Blood Bank " address="Pakari Chauk; Near Malti Hospital" mobile_no="2147483647" latitude="25.54" longitude="87.5675" type="Blood_Bank" />
<marker sr_no="229" blood_bank_name="Indian Red Cross Blood Bank (IRCS) Blood Bank" address="South Ramna Road; Bhojpur" mobile_no="2147483647" latitude="25.5593" longitude="84.662" type="Blood_Bank" />
<marker sr_no="230" blood_bank_name="Sadar Hospital Buxar Blood Bank" address="Old Campus of Sadar Hospital; Civil Line" mobile_no="2147483647" latitude="25.5647" longitude="83.9777" type="Blood_Bank" />
<marker sr_no="231" blood_bank_name="Darbhanga Medical College and Hospital (DMCH) Regional Blood Bank" address="Darbhanga Surgery Building; Ground Floor; DMCH Campus; DMCH Road" mobile_no="0" latitude="26.1334" longitude="85.8989" type="Blood_Bank" />
<marker sr_no="232" blood_bank_name="Indian Red Cross Society Blood Bank, Motihari" address="Red Cross Society Sadar Hospital road; Motihari; Red Cross Bhawan; Hospital Road" mobile_no="2147483647" latitude="26.6475" longitude="84.9103" type="Blood_Bank" />
<marker sr_no="233" blood_bank_name="Duncan Hospital Blood Bank" address="Near Nepal Custom Gate; East Champaran District; Raxaul" mobile_no="0" latitude="0" longitude="0" type="Blood_Bank" />
<marker sr_no="234" blood_bank_name="Anugrah Narayan Memorial Magadh Medical College Hospital (ANMMCH) Blood Bank" address="Sher Ghati Road" mobile_no="2147483647" latitude="24.7712" longitude="84.9603" type="Blood_Bank" />
<marker sr_no="235" blood_bank_name="Bhagwan Mahabir Blood Bank" address="Pilgrim Hospital Campus; G. B. Road; Chowk  " mobile_no="2147483647" latitude="0" longitude="0" type="Blood_Bank" />
<marker sr_no="236" blood_bank_name=" Sadar Hospital, Gopalganj Blood Bank" address="Ward No. 15; Gopalganj" mobile_no="2147483647" latitude="26.4608" longitude="84.4411" type="Blood_Bank" />
<marker sr_no="237" blood_bank_name="Sadar Hospital Jamui Blood Bank" address="185; Khan Hospital Road " mobile_no="2147483647" latitude="25.2052" longitude="85.5145" type="Blood_Bank" />
<marker sr_no="238" blood_bank_name="Amar Saheed Jagdeo Prasad, Sadar Hospital Jehanabad Blood Bank " address="P G Road; Arwal More" mobile_no="2147483647" latitude="40.2672" longitude="86.1349" type="Blood_Bank" />
<marker sr_no="239" blood_bank_name="Sadar Hospital Kaimur (Bhabua) Blood Bank " address="Kachahari Road; Kaimur" mobile_no="2147483647" latitude="25.0396" longitude="83.6077" type="Blood_Bank" />
<marker sr_no="240" blood_bank_name="Katihar Medical College Blood Bank" address="Karim Bagh; Post Box No. 23" mobile_no="2147483647" latitude="0" longitude="0" type="Blood_Bank" />
<marker sr_no="241" blood_bank_name="Sadar Hospital, Katihar Blood bank" address="Blood Bank; Sadar Hospital  " mobile_no="2147483647" latitude="25.5399" longitude="87.5676" type="Blood_Bank" />
<marker sr_no="242" blood_bank_name="Sadar Hospital Khagaria Blood Bank " address="Ward Number 14; Khagaria" mobile_no="2147483647" latitude="25.5079" longitude="86.4746" type="Blood_Bank" />
<marker sr_no="243" blood_bank_name="Mata Gujri Memorial Medical College &amp; Lions Kenra Hospital Blood Bank " address="Purabbali; Dinajpur Road" mobile_no="82985" latitude="0" longitude="0" type="Blood_Bank" />
<marker sr_no="244" blood_bank_name="Mata Gujri Memorial (MGM) Blood Bank" address="Medical College and Lions Seva Kendra Hospital Blood Bank" mobile_no="2147483647" latitude="0" longitude="0" type="Blood_Bank" />
<marker sr_no="245" blood_bank_name="Sadar Hospital Kishanganj Blood Bank " address="Hospital Road" mobile_no="2147483647" latitude="26.1018" longitude="87.9488" type="Blood_Bank" />
<marker sr_no="246" blood_bank_name="Sadar Hospital Lakhisarai Blood Bank " address="Jamui - Lakhisarai Road; Jamui" mobile_no="2147483647" latitude="0" longitude="0" type="Blood_Bank" />
<marker sr_no="247" blood_bank_name="Sadar Hospital Madhepura Blood Bank " address="Near pani tanki chowk; Ward No:10" mobile_no="2147483647" latitude="25.9229" longitude="86.7922" type="Blood_Bank" />
<marker sr_no="248" blood_bank_name="Sadar Hospital Madhubani Blood Bank" address="National Highway-104; Post Office Road" mobile_no="2147483647" latitude="0" longitude="0" type="Blood_Bank" />
<marker sr_no="249" blood_bank_name="Sadar Hospital Muzaffarpur Blood Bank" address="Sutapatti; Pokhraira; Near Muzaffarpur Railway Station" mobile_no="0" latitude="0" longitude="0" type="Blood_Bank" />
<marker sr_no="250" blood_bank_name="Sinha Blood Bank Muzaffarpur" address="Ward no. 5; Imlichatti Sinha Blood Bank (A unit of Dr. A.K. Sinha Nursing Home) " mobile_no="2147483647" latitude="0" longitude="0" type="Blood_Bank" />
<marker sr_no="251" blood_bank_name="Sri Krishna Medical College Hospital (SKMCH) Blood Bank " address="National Highway 77; Uma Nagar; Rasulpur Saidpur Bazid " mobile_no="99342" latitude="26.1676" longitude="85.3921" type="Blood_Bank" />
<marker sr_no="252" blood_bank_name="Krishna Devi Devi Prasad Kejriwal Maternity Hospital Blood bank" address="Juran   Chapra; Road No.2; " mobile_no="2147483647" latitude="0" longitude="0" type="Blood_Bank" />
<marker sr_no="253" blood_bank_name="Sadar Hospital Muzaffarpur Blood Bank" address="Sadar Hospital Blood Bank Muzaffarpur; Near Muzaffarpur Railway Station; Hospital Road;  " mobile_no="2147483647" latitude="26.1223" longitude="85.3826" type="Blood_Bank" />
<marker sr_no="254" blood_bank_name="Nalanda Blood Bank (A Unit of Janata Karah Kalyan Samaj)" address="Nalanda Blood Bank (A Unit of Janata Karah Kalyan Samaj); Azizghat Main Rd; Baradari; Bihar Sharif;  " mobile_no="96933" latitude="0" longitude="0" type="Blood_Bank" />
<marker sr_no="255" blood_bank_name="Red Cross Blood Bank, Sadar Hospital, Bihar Sharif" address="Indian Red Cross Society; opposite Sadar Hospital; near IMA hall" mobile_no="2147483647" latitude="25.2052" longitude="85.5145" type="Blood_Bank" />
<marker sr_no="256" blood_bank_name="Sadar Hospital Nawada Blood Bank " address="Sadar Hospital; Roh  " mobile_no="0" latitude="0" longitude="0" type="Blood_Bank" />
<marker sr_no="257" blood_bank_name=" Hitech Emergency Hospital Blood Bank " address="(A keshaw Hospital Private Limited) Saguna More; Khagaul Road; Saguna More; Danapur Cantonment; " mobile_no="2147483647" latitude="0" longitude="0" type="Blood_Bank" />
<marker sr_no="258" blood_bank_name="Bharat Blood Bank" address="Churi Market; Near jahaji kothi; churi market Kadamkuan; " mobile_no="93341" latitude="0" longitude="0" type="Blood_Bank" />
<marker sr_no="259" blood_bank_name="Kurji Holy Family Hospital Blood Bank" address="Danapur Road; Sadaquat Ashram P.O; Kurji" mobile_no="2147483647" latitude="0" longitude="0" type="Blood_Bank" />
<marker sr_no="260" blood_bank_name="National Blood Bank &amp; Resarch Center" address="NC/ 2B Main Road; Kankarbagh; Near Sri Ram Hospital" mobile_no="2147483647" latitude="0" longitude="0" type="Blood_Bank" />
<marker sr_no="261" blood_bank_name="Nalanda Medical College and Hospital Blood Bank" address="Agamkuan; Near Shitla Mandir" mobile_no="0" latitude="25.5941" longitude="85.1376" type="Blood_Bank" />
<marker sr_no="262" blood_bank_name="Military Hospital Blood Bank" address="Danapur Cantt " mobile_no="0" latitude="0" longitude="0" type="Blood_Bank" />
<marker sr_no="263" blood_bank_name="Lions Mahavir Cancer Sansthan Blood Bank" address="Mahavir Cancer Sansthan; Phulwarisharif " mobile_no="2147483647" latitude="0" longitude="0" type="Blood_Bank" />
<marker sr_no="264" blood_bank_name="Tripolia Social Service Hospital and Blood Bank" address="Gulzarbarg" mobile_no="0" latitude="0" longitude="0" type="Blood_Bank" />
<marker sr_no="265" blood_bank_name="Shashi Blood Bank" address="Shashi Blood Bank; Ashok Rajpath; Patna" mobile_no="2147483647" latitude="0" longitude="0" type="Blood_Bank" />
<marker sr_no="266" blood_bank_name="Patliputra Blood Bank" address="Opp. ENT Outdoor; Patna Medical College Hospital; Ashok Rajpath Road; Bankipur " mobile_no="2147483647" latitude="0" longitude="0" type="Blood_Bank" />
<marker sr_no="267" blood_bank_name="Bihar State Patna Medical College and Hospital (PMCH) Blood Bank" address="Ashok Raj Path; Bankipore  " mobile_no="0" latitude="25.6198" longitude="85.1589" type="Blood_Bank" />
<marker sr_no="268" blood_bank_name="Indian Red Cross Society (IRCS) Patna Blood Bank" address="Indian Red Cross Bhawan; North Gandhi Maidan" mobile_no="0" latitude="25.6199" longitude="85.1453" type="Blood_Bank" />
<marker sr_no="269" blood_bank_name="Jaiprabha Hospital Model Blood Bank (MBB)" address="State of art Model Blood Bank; Jai Prabha Hospital Campus; P.C.Colony; Kankarbagh; Near Ganga Devi Mahila Maha Vidyalaya" mobile_no="2147483647" latitude="25.6002" longitude="85.1523" type="Blood_Bank" />
<marker sr_no="270" blood_bank_name="Palm View Hospital Blood Bank" address="Ambedkar Path; Nandanpur; Near Jagdeo Path More; Khajpura;  " mobile_no="2147483647" latitude="0" longitude="0" type="Blood_Bank" />
<marker sr_no="271" blood_bank_name="Lions Jeewan Blood Bank " address="C/o. Jeevak Heart Hospital &amp; Research Institute Private Limited; D-6 Doctor&amp;#39;s Colony; Kankarbagh;  " mobile_no="0" latitude="0" longitude="0" type="Blood_Bank" />
<marker sr_no="272" blood_bank_name="Paras HMRI Hospital Blood Bank" address="NH 30; Bailey Road; Raja Bazar" mobile_no="0" latitude="0" longitude="0" type="Blood_Bank" />
<marker sr_no="273" blood_bank_name="Indira Gandhi Institute of Medical Sciences (IGIMS) Blood Bank " address="Baily Road; Sheikpura; Raja Bazar; Near Sanjay Gandhi Botanical Garden" mobile_no="2147483647" latitude="25.6117" longitude="85.0896" type="Blood_Bank" />
<marker sr_no="274" blood_bank_name="Life Line Blood Bank" address="Govind Mitra Road  " mobile_no="2147483647" latitude="0" longitude="0" type="Blood_Bank" />
<marker sr_no="275" blood_bank_name=" Vaatsalya Blood Bank" address="Mahavir Vaatsalya Aspatal; East of Sadaquat Ashram; L. C. T. Ghat" mobile_no="2147483647" latitude="0" longitude="0" type="Blood_Bank" />
<marker sr_no="276" blood_bank_name="Paras Hmri Hospital Blood Bank" address="Baily Road; Raja bazaar" mobile_no="0" latitude="0" longitude="0" type="Blood_Bank" />
<marker sr_no="277" blood_bank_name="Ruban Memorial Hospital Blood Bank" address="19 Patliputra Colony; Near Patliputra Golambar  " mobile_no="2147483647" latitude="0" longitude="0" type="Blood_Bank" />
<marker sr_no="278" blood_bank_name="Jeevan Rekha Blood Bank" address="(A unit of Sanjiwini Medicare Charitable Trust); Getwel Hospital; Rajabazar; Bailey Road" mobile_no="2147483647" latitude="0" longitude="0" type="Blood_Bank" />
<marker sr_no="279" blood_bank_name="Indian Red Cross Society (IRCS) Blood Bank" address="Red Cross Blood Bank; Purnea; Red Cross Bhawan Line Bazar " mobile_no="2147483647" latitude="25.7855" longitude="87.4883" type="Blood_Bank" />
<marker sr_no="280" blood_bank_name="Sadar Hospital Purnia  Blood Bank " address="Sudin Chowk Road; Rajnikant Colony; Line Bazar; Purnea;" mobile_no="2147483647" latitude="25.7782" longitude="87.4725" type="Blood_Bank" />
<marker sr_no="281" blood_bank_name="Bose Clinic Blood Bank" address="Dehral on Sone; Canal Road; Rohtas " mobile_no="2147483647" latitude="0" longitude="0" type="Blood_Bank" />
<marker sr_no="282" blood_bank_name="Sadar Hospital Sasaram Blood Bank" address="Rauza Road; Laxkariganj; Near Head Post Office; Sasaram " mobile_no="0" latitude="24.9528" longitude="84.0139" type="Blood_Bank" />
<marker sr_no="283" blood_bank_name="Narayana Medical College and Hospital Blood Bank" address="Jamuhar Sasaram; Rohtas " mobile_no="2147483647" latitude="0" longitude="0" type="Blood_Bank" />
<marker sr_no="284" blood_bank_name="Micro Blood Bank Sasaram" address="Micro Blood Bank Raj Colony; Sasaram; Rohtas  " mobile_no="2147483647" latitude="0" longitude="0" type="Blood_Bank" />
<marker sr_no="285" blood_bank_name="Sadar Hospital Saharsa Blood Bank " address="Zila School Road; Police Line; Saharsa" mobile_no="2147483647" latitude="25.8871" longitude="86.591" type="Blood_Bank" />
<marker sr_no="286" blood_bank_name="Indian Red Cross Society (IRCS) Samastipur Blood Bank " address="Sadar Hospital Samastipur Campus; Opposite Circuit House " mobile_no="2147483647" latitude="0" longitude="0" type="Blood_Bank" />
<marker sr_no="287" blood_bank_name="Sadar Hospital Samastipur Blood Bank " address="14; State Highway 50; Azad Nagar; Samastipur; " mobile_no="2147483647" latitude="25.8572" longitude="85.7785" type="Blood_Bank" />
<marker sr_no="288" blood_bank_name="Sadar Hospital Chhapra Blood Bank " address="Daroga Rai Chowk; Sadhapur; Chhapra;" mobile_no="78709" latitude="25.7817" longitude="84.7307" type="Blood_Bank" />
<marker sr_no="289" blood_bank_name="Sadar Hospital Sheikhpura Blood Bank" address="Near Dallu Chowk; Sheikhpura;" mobile_no="2147483647" latitude="25.1332" longitude="85.8414" type="Blood_Bank" />
<marker sr_no="290" blood_bank_name="Sadar Hospital Sitamarhi Blood Bank" address="NH 104; KVJ Nagar; Sitamarhi; " mobile_no="2147483647" latitude="26.5962" longitude="85.4947" type="Blood_Bank" />
<marker sr_no="291" blood_bank_name=" Sadar Hospital Siwan Blood Bank" address="SH 45; Babhnauli; Siwan" mobile_no="82940" latitude="26.2262" longitude="84.3618" type="Blood_Bank" />
<marker sr_no="292" blood_bank_name="P.N.H Mahatma Budh Educational and Research Centre Blood Bank " address="Mahatma Budh Educational and Research Centre; situated at Popular Nursing Home; East of Gandhi Maidan" mobile_no="2147483647" latitude="0" longitude="0" type="Blood_Bank" />
<marker sr_no="293" blood_bank_name="Sadar Hospital Hajipur Blood Bank " address="hospital road; hajipur; Near Civil Court " mobile_no="2147483647" latitude="25.6903" longitude="85.2083" type="Blood_Bank" />
<marker sr_no="294" blood_bank_name="Maharani Janki Kunwar (MJK) Hospital Blood Bank" address="Bettiah; West Champaran" mobile_no="0" latitude="26.7969" longitude="84.5009" type="Blood_Bank" />
<marker sr_no="295" blood_bank_name="Department of  Transfusion Medicine, PGIMER Blood Bank" address="Blood Bank; Department of Transfusion Medicine; Nehru Hospital; PGIMER; Sec-12; Chandigarh. " mobile_no="2147483647" latitude="30.7659" longitude="76.7755" type="Blood_Bank" />
<marker sr_no="296" blood_bank_name="Rotary and Blood Bank Society Resource Centre" address="Plot No:4; Dakshin Marg; Sector 37A; Chandigarh" mobile_no="2147483647" latitude="30.7421" longitude="76.7551" type="Blood_Bank" />
<marker sr_no="297" blood_bank_name="Government Medical College and Hospital Blood Bank " address="Department of Transfusion Medicine ;Government Medical College and Hospital; Sector-32; Chandigarh" mobile_no="2147483647" latitude="30.7093" longitude="76.7805" type="Blood_Bank" />
<marker sr_no="298" blood_bank_name="Government Multispeciality Hospital Blood Bank" address="Blood Bank; Government Multispeciality Hospital; Room No. 164 Sector 16 Chandigarh." mobile_no="2147483647" latitude="30.751" longitude="76.781" type="Blood_Bank" />
<marker sr_no="299" blood_bank_name="District Hospital Blood Bank Baloda Bazar" address="Baloda" mobile_no="0" latitude="0" longitude="0" type="Blood_Bank" />
<marker sr_no="300" blood_bank_name="Maharani Hospital Blood Bank " address="Lt. brkm .govtmedical college jagdalpur chandni chouk jagdalpur" mobile_no="0" latitude="19.0851" longitude="82.024" type="Blood_Bank" />
<marker sr_no="301" blood_bank_name="District Hospital Blood Bank Bemetara" address="Bemetara" mobile_no="0" latitude="0" longitude="0" type="Blood_Bank" />
<marker sr_no="302" blood_bank_name="District Hospital Blood Bank Bijapur" address="Bijapur" mobile_no="0" latitude="0" longitude="0" type="Blood_Bank" />
<marker sr_no="303" blood_bank_name="Chhattisgarh Insititute of Medical Sciences (CIMS) Blood Bank " address="Gond Para; Gole Bazar" mobile_no="2147483647" latitude="22.0876" longitude="82.1523" type="Blood_Bank" />
<marker sr_no="304" blood_bank_name="Bilaspur District Hospital Blood Bank " address="Sardar Vallabhbhai Patel District Govt Hospital; old bus stand road Opposite to Rajeev plaza" mobile_no="0" latitude="22.0742" longitude="82.1584" type="Blood_Bank" />
<marker sr_no="305" blood_bank_name="Meghani Blood Bank Bilaspur" address="Main Road; Bilaspur" mobile_no="0" latitude="0" longitude="0" type="Blood_Bank" />
<marker sr_no="306" blood_bank_name="Apollo Hospital Blood Bank " address="Village - Lingyadih; Seepat Road" mobile_no="2147483647" latitude="22.087" longitude="82.1776" type="Blood_Bank" />
<marker sr_no="307" blood_bank_name="Shri Rawatpura Sarkar Lok Kalyan Trust, Bilasa Blood Bank " address="2nd Floor; Bhawe Razab Ali Chamber;  Opposite to CIMS Hospital; Sadar Bazaar; Bilaspur" mobile_no="2147483647" latitude="22.0867" longitude="82.1525" type="Blood_Bank" />
<marker sr_no="308" blood_bank_name="Ekta Blood Bank" address="C/O Thalassemia Society;Near Abhiyanta Bhawan;Magarpara" mobile_no="2147483647" latitude="22.0787" longitude="82.1451" type="Blood_Bank" />
<marker sr_no="309" blood_bank_name="NMDC Apollo Hospital Blood Bank" address="Bailadila Iron Ore Mines; Bacheli; Dantewada" mobile_no="0" latitude="18.7037" longitude="81.2486" type="Blood_Bank" />
<marker sr_no="310" blood_bank_name="District Hospital Blood Bank Dantewada" address="Civil Surgeon; District Hospital; Dantewada" mobile_no="2147483647" latitude="18.8936" longitude="81.3505" type="Blood_Bank" />
<marker sr_no="311" blood_bank_name="NMDC Project Hospital Blood Bank" address="Bailadila Iron Ore Mine; Kirandul Complex" mobile_no="0" latitude="18.6342" longitude="81.2529" type="Blood_Bank" />
<marker sr_no="312" blood_bank_name="Dhamtari District Hospital Blood Bank " address="Civil Surgeon; District Hospital; Dhamtari" mobile_no="2147483647" latitude="20.7077" longitude="81.5395" type="Blood_Bank" />
<marker sr_no="313" blood_bank_name="Dhamtari Christian Hospital" address="Industrial Area; Raipur Road; Dhamtari" mobile_no="2147483647" latitude="20.7187" longitude="81.5515" type="Blood_Bank" />
<marker sr_no="314" blood_bank_name="B.S.R. Cancer Hospital" address="B.S.R. Cancer Hospital (P.A.) Limited; Junwani Road; Smriti Nagar; Bhilai; Near T.I. Mall" mobile_no="2147483647" latitude="21.2163" longitude="81.3226" type="Blood_Bank" />
<marker sr_no="315" blood_bank_name="Chandulal Chandraker Memorial (C.C.M.) Medical College Blood Bank" address="Kachandur; Kurud-Road" mobile_no="2147483647" latitude="21.2515" longitude="81.3374" type="Blood_Bank" />
<marker sr_no="316" blood_bank_name="M/s Shri Shankaracharya Blood Bank" address="Shankaracharya Institute of Medical Sciences; Junwani" mobile_no="2147483647" latitude="0" longitude="0" type="Blood_Bank" />
<marker sr_no="317" blood_bank_name="Durg District Hospital  Blood Bank" address="Civil Surgeon; District Hospital; Durg" mobile_no="2147483647" latitude="21.1871" longitude="81.2792" type="Blood_Bank" />
<marker sr_no="318" blood_bank_name="J.L.N Hospital &amp; Research Center  Blood Bank" address="Sector-9 Bhilai" mobile_no="2147483647" latitude="21.1897" longitude="81.3161" type="Blood_Bank" />
<marker sr_no="319" blood_bank_name="Chandulal Chandrakar Memorial Hopsital Blood Bank" address="Chandulal Chandraker Memorial Hospital; GE Road; Bhilai; Durg." mobile_no="2147483647" latitude="21.2002" longitude="81.3227" type="Blood_Bank" />
<marker sr_no="320" blood_bank_name="Gayatri Blood Bank, Durg" address="OM Parisar; Dhamdha Road" mobile_no="2147483647" latitude="0" longitude="0" type="Blood_Bank" />
<marker sr_no="321" blood_bank_name="Janjgir District Hospital Blood Bank " address="Distrcit hospital premises;Janjgir" mobile_no="2147483647" latitude="0" longitude="0" type="Blood_Bank" />
<marker sr_no="322" blood_bank_name="Jashpur District Hospital Blood Bank " address="Distrcit hospital premises" mobile_no="2147483647" latitude="0" longitude="0" type="Blood_Bank" />
<marker sr_no="323" blood_bank_name="Kawardha District Hospital Blood Bank  " address="Civil Surgeon; District Hospital; Kawardha" mobile_no="2147483647" latitude="22.036" longitude="81.221" type="Blood_Bank" />
<marker sr_no="324" blood_bank_name="Kanker District Hospital Blood Bank  " address="Civil Surgeon; District Hospital; Kanker" mobile_no="2147483647" latitude="20.2647" longitude="81.4952" type="Blood_Bank" />
<marker sr_no="325" blood_bank_name="Indira Gandhi District Hospital Blood bank, Kobra" address="Rajgamar Road; Kosabadi Korba " mobile_no="2147483647" latitude="22.364" longitude="82.744" type="Blood_Bank" />
<marker sr_no="326" blood_bank_name="Nehru Centenary Hospital Blood Bank" address="SECl Gevra Area; Gevra Project" mobile_no="2147483647" latitude="0" longitude="0" type="Blood_Bank" />
<marker sr_no="327" blood_bank_name="Bilash Blood Bank,KORBA" address="HIG-21; Ext. M. P. Nagar; Ghantaghar Chowk" mobile_no="2147483647" latitude="22.3588" longitude="82.7203" type="Blood_Bank" />
<marker sr_no="328" blood_bank_name="Lions Blood Bank" address="Lahu ram Colony; Adarsh Nagar" mobile_no="0" latitude="0" longitude="0" type="Blood_Bank" />
<marker sr_no="329" blood_bank_name="Distrcit Hospital Baikunthpur Blood bank, Korea" address="Jampara; Baikunthpur" mobile_no="2147483647" latitude="23.26" longitude="82.562" type="Blood_Bank" />
<marker sr_no="330" blood_bank_name="Christian Hospital Blood Bank" address="Tilak Ward Lormi Road;  Mungeli" mobile_no="2147483647" latitude="22.071" longitude="81.6876" type="Blood_Bank" />
<marker sr_no="331" blood_bank_name="Ramakrishna Mission Ashram Blood Bank" address="Ramakrishna Mission Ashram; Narayanpur" mobile_no="0" latitude="19.7166" longitude="81.2293" type="Blood_Bank" />
<marker sr_no="332" blood_bank_name="District Hospital Blood Bank Mahasamund" address="Mahasamund Raipur Road; Kharora Village" mobile_no="2147483647" latitude="21.1193" longitude="82.0743" type="Blood_Bank" />
<marker sr_no="333" blood_bank_name="District Hospital Blood Bank Raigarh " address="Civil Surgeon; District Hospital; Raigarh" mobile_no="2147483647" latitude="0" longitude="0" type="Blood_Bank" />
<marker sr_no="334" blood_bank_name="O.P. Jindal Hospital &amp; Research Centre Blood Bank " address="Jindal Education and Welfare Society; INN Plaza; Kharsia Road; Patrapali" mobile_no="2147483647" latitude="21.9273" longitude="83.3591" type="Blood_Bank" />
<marker sr_no="335" blood_bank_name="Sewa Blood Bank" address="Opposite to Kirodimal district hospital; Gopi Talkies Road" mobile_no="0" latitude="21.8909" longitude="83.3966" type="Blood_Bank" />
<marker sr_no="336" blood_bank_name="Dr B R Ambedkar Memorial Hospital, Model Blood Bank" address="Room No:120; 1st Floor; Attached with PT.J.N.M Medical College; Jail Road " mobile_no="2147483647" latitude="21.2508" longitude="81.639" type="Blood_Bank" />
<marker sr_no="337" blood_bank_name="Indian Red Cross Society Blood Bank" address="Pt. J. N. M. Medical College premises; Jail Road; Raipur" mobile_no="2147483647" latitude="21.15" longitude="81.38" type="Blood_Bank" />
<marker sr_no="338" blood_bank_name="Thawait Blood Bank" address="Flat No: 201; Rajeev Gandhi Complex; Balashram Katchery Chowk; Near State Bank of India" mobile_no="2147483647" latitude="0" longitude="0" type="Blood_Bank" />
<marker sr_no="339" blood_bank_name="City Blood Bank" address="Adarsh Bazar; G.E Road; Near Vivekanand Ashram" mobile_no="2147483647" latitude="21.2409" longitude="81.6207" type="Blood_Bank" />
<marker sr_no="340" blood_bank_name="Sai Sahara Blood Bank" address="Garcha Complex; Jail Road " mobile_no="2147483647" latitude="21.2514" longitude="81.6296" type="Blood_Bank" />
<marker sr_no="341" blood_bank_name="Narayana Hrudayalaya MMI Blood Bank" address="NHMMI Hospital Campus; Lalpur; Dhamtari Road" mobile_no="2147483647" latitude="21.2133" longitude="81.6577" type="Blood_Bank" />
<marker sr_no="342" blood_bank_name="United Blood Bank" address="New Bus Stand; Pandri; Hotel Guru Ki Gali Mein; Near Raja Talab;" mobile_no="0" latitude="0" longitude="0" type="Blood_Bank" />
<marker sr_no="343" blood_bank_name="SSD Blood Bank" address="Katora Talab Chowk; Near Netaji Hotel; Opposite to Swapnil Nursing Home" mobile_no="2147483647" latitude="21.2358" longitude="81.6523" type="Blood_Bank" />
<marker sr_no="344" blood_bank_name="Chhattisgarh Blood Bank" address="Agarainal Ramkrishna Care Hospital Premises; Opp. RKC Complex; Great Eastern Rd; Ramkund;   Near Dhuppad Petrol Pump" mobile_no="2147483647" latitude="21.2468" longitude="81.6119" type="Blood_Bank" />
<marker sr_no="345" blood_bank_name="Bilasa Blood Bank" address="Sr. HIG -10;Sector-03; Shanker Nagar" mobile_no="2147483647" latitude="21.2544" longitude="81.6634" type="Blood_Bank" />
<marker sr_no="346" blood_bank_name="Srishti Blood Bank" address="2nd Floor; Dhillon Complex; Near Sindhi School; Jawahar Nagar;" mobile_no="2147483647" latitude="21.247" longitude="81.656" type="Blood_Bank" />
<marker sr_no="347" blood_bank_name="Shree Narayana Hospital Blood Bank" address="Near Ganj Mandi; Behind Sector - 5; Devendra Nagar; Pandri" mobile_no="2147483647" latitude="21.2635" longitude="81.6498" type="Blood_Bank" />
<marker sr_no="348" blood_bank_name="Rajdhani Blood Bank" address="Main Road; Badhaipara " mobile_no="2147483647" latitude="21.245" longitude="81.6301" type="Blood_Bank" />
<marker sr_no="349" blood_bank_name="Evangelical Mission Hospital Blood Bank" address="Tilda; P.O. Neora" mobile_no="2147483647" latitude="21.554" longitude="81.7905" type="Blood_Bank" />
<marker sr_no="350" blood_bank_name="Raipur Institute of Medical Science" address="RIMS Knowledge Park; Bhansoj Road; Off NH-6; " mobile_no="0" latitude="21.2632" longitude="81.637" type="Blood_Bank" />
<marker sr_no="351" blood_bank_name="Aashirwad Blood Bank" address="H. No. S-5; Rajiv Nagar; Shankar Nagar; Behind Cristal Arcade Complex" mobile_no="2147483647" latitude="21.2582" longitude="81.6602" type="Blood_Bank" />
<marker sr_no="352" blood_bank_name="AIIMS Blood Bank" address="Tatibandh" mobile_no="2147483647" latitude="0" longitude="0" type="Blood_Bank" />
<marker sr_no="353" blood_bank_name="Medical college&amp; Hospital Blood Bank Rajnandgaon" address="Superitendant medical college&amp; Hospital Rajnandgaon" mobile_no="2147483647" latitude="21.0865" longitude="81.0303" type="Blood_Bank" />
<marker sr_no="354" blood_bank_name="bilasa blood bank rajnandgaon" address="District hospital premises" mobile_no="0" latitude="0" longitude="0" type="Blood_Bank" />
<marker sr_no="355" blood_bank_name="District Hospital Blood Bank Sukma" address="Sukma" mobile_no="0" latitude="0" longitude="0" type="Blood_Bank" />
<marker sr_no="356" blood_bank_name="District Hospital Blood Bank" address="Distrcit hospital premises" mobile_no="2147483647" latitude="0" longitude="0" type="Blood_Bank" />
<marker sr_no="357" blood_bank_name="Surguja District Hospital Blood Bank " address="Bilaspur Road; Ambikapur" mobile_no="2147483647" latitude="23.11" longitude="83.1945" type="Blood_Bank" />
<marker sr_no="358" blood_bank_name="Holy Cross Hospital Blood Bank" address="Ambikapur; Surguja District " mobile_no="2147483647" latitude="23.1342" longitude="83.1935" type="Blood_Bank" />
<marker sr_no="359" blood_bank_name="Tej Blood Bank" address="Plot No. 3528/47; Jail Road; Babupara Opposite to Joda Talab" mobile_no="2147483647" latitude="23.1176" longitude="83.1912" type="Blood_Bank" />
<marker sr_no="360" blood_bank_name="Indian Red Cross Society (IRCS) Blood Bank" address="IRCS Red Cross House; Opposite to Bus Stand" mobile_no="2147483647" latitude="20.2763" longitude="73.0083" type="Blood_Bank" />
<marker sr_no="361" blood_bank_name="Daman Raktadan Kendra" address="Government Hospital Marwad Campus;  Nani Daman." mobile_no="2147483647" latitude="20.4332" longitude="72.8313" type="Blood_Bank" />
<marker sr_no="362" blood_bank_name="Diu District Blood Bank" address="Govt Hospital Near Sports Complex; Main Road; DIU" mobile_no="2147483647" latitude="20.7129" longitude="70.9889" type="Blood_Bank" />
<marker sr_no="363" blood_bank_name="Indian Red Cross Society (IRCS) Blood Bank" address="1; Red Cross Road; Near Parliament House" mobile_no="2147483647" latitude="28.6187" longitude="77.2109" type="Blood_Bank" />
<marker sr_no="364" blood_bank_name="Dr. Ram Manohar Lohia Hospital Blood Bank" address="161; Kali Bari Ln; Havelock Square; Type III; President&amp;#39;s Estate; " mobile_no="0" latitude="28.3734" longitude="77.125" type="Blood_Bank" />
<marker sr_no="365" blood_bank_name="Sucheta Kriplani Hospital Blood Bank" address="C-604; Shaheed Bhagat Singh Marg; Connaught Place; Opposite to Shivaji Stadium Bus Terminal" mobile_no="2147483647" latitude="28.6357" longitude="77.2133" type="Blood_Bank" />
<marker sr_no="366" blood_bank_name="Govind Ballabh (G.B.) Pant Hospital Blood Bank" address="1; Jawahar Lal Nehru Marg; Delhi Gate  " mobile_no="2147483647" latitude="28.6395" longitude="77.2352" type="Blood_Bank" />
<marker sr_no="367" blood_bank_name="Regional Blood Tranfusion Center Blood bank, Central Zone" address="2 Jawarlal Nehru Marg; Delhi Gate; Near UBPH" mobile_no="2147483647" latitude="28.639" longitude="77.2384" type="Blood_Bank" />
<marker sr_no="368" blood_bank_name="Kasturba Hospital Blood Bank" address="Near Jama Masjid; Daryaganj" mobile_no="2147483647" latitude="28.6488" longitude="77.238" type="Blood_Bank" />
<marker sr_no="369" blood_bank_name="Sir Ganga Ram Hospital Blood Bank" address="Old Rajindra Nagar; Near Janki Devi College" mobile_no="0" latitude="28.6387" longitude="77.1895" type="Blood_Bank" />
<marker sr_no="370" blood_bank_name="Lal Bahadur Shastri Hospital Blood Bank" address="Near Kalyanvas Colony / Mayur Vihar Phase -II; GNCTD Kichdipur " mobile_no="2147483647" latitude="28.6178" longitude="77.3115" type="Blood_Bank" />
<marker sr_no="371" blood_bank_name="Max Super Specialty Hospital Blood Bank" address="Max Balaji Hospital (A unit of Balaji Medical and Diagnostic Research Centre); 108-A; Indraprastha Extension; Opposite Sanchar Apartment; Patparganj" mobile_no="2147483647" latitude="28.6335" longitude="77.3088" type="Blood_Bank" />
<marker sr_no="372" blood_bank_name="Dr. Hedgewar Arogaya Sansthan Blood bank" address="F-18; Karkardooma" mobile_no="2147483647" latitude="28.6559" longitude="77.2935" type="Blood_Bank" />
<marker sr_no="373" blood_bank_name="Lions Blood Bank East Delhi" address="369; II Floor; FIE; Near M.C.D. Office; Patparganj Industrial Area Near Punjab National Bank " mobile_no="2147483647" latitude="28.6411" longitude="77.3094" type="Blood_Bank" />
<marker sr_no="374" blood_bank_name="Dharamshila Cancer Foundation and Research Centre Blood Bank" address="4th floor; Vasundhara Enclave; Near New Ashok Nagar Metro Station" mobile_no="2147483647" latitude="28.6025" longitude="77.3142" type="Blood_Bank" />
<marker sr_no="375" blood_bank_name="Northern Railway Central Hospital Blood Bank" address="Basant Lane; Connaught Place" mobile_no="2147483647" latitude="28.6365" longitude="77.2175" type="Blood_Bank" />
<marker sr_no="376" blood_bank_name="Pushpawati Singhania Research Institute Blood bank" address="Press Enclave Marg; Sheikh Sarai; Phase-II" mobile_no="2147483647" latitude="28.5332" longitude="77.2252" type="Blood_Bank" />
<marker sr_no="377" blood_bank_name="Cardio Neuro Centre Blood Bank, AIIMS " address="AIIMS; Ansari Nagar" mobile_no="2147483647" latitude="28.5665" longitude="77.2098" type="Blood_Bank" />
<marker sr_no="378" blood_bank_name="Hindu Rao Hospital Blood Bank" address="G Block 4th floor; Near Civil Lines Malkaganj" mobile_no="0" latitude="28.6754" longitude="77.2123" type="Blood_Bank" />
<marker sr_no="379" blood_bank_name="St. Stephen&amp;#39;s Hospital Blood Bank" address="Tis Hazari; Opposite to Tis Hazari Metro Station" mobile_no="2147483647" latitude="28.6651" longitude="77.2145" type="Blood_Bank" />
<marker sr_no="380" blood_bank_name="Sant Pramanand Hospital Blood Bank" address="18; Sham Nath Marg; Civil lines;" mobile_no="2147483647" latitude="28.6777" longitude="77.2241" type="Blood_Bank" />
<marker sr_no="381" blood_bank_name="Swami Dayanand Hospital Blood Bank" address="Dilshad Garden " mobile_no="2147483647" latitude="28.6785" longitude="77.3041" type="Blood_Bank" />
<marker sr_no="382" blood_bank_name="Mission Jan Jagriti Blood Bank" address="MGS Hospital; 35/37 Rohtak road; West Punjabi Bagh Adjacent to Maharaja Aggarsen Hospital; Near Shivali park metro station " mobile_no="2147483647" latitude="28.606" longitude="77.2954" type="Blood_Bank" />
<marker sr_no="383" blood_bank_name="Central Poly Clinic Blood Bank" address="3; Gangan Vihar; Shahdara Road" mobile_no="2147483647" latitude="28.6457" longitude="77.2925" type="Blood_Bank" />
<marker sr_no="384" blood_bank_name="Sushruta Trauma Centre Blood Bank" address="Civil Lines; 9; Metcalf Road" mobile_no="2147483647" latitude="28.6803" longitude="77.2277" type="Blood_Bank" />
<marker sr_no="385" blood_bank_name="Sanjay Gandhi Memorial Hospital Blood Bank" address="S-Block; Mangolpuri" mobile_no="2147483647" latitude="28.6928" longitude="77.0817" type="Blood_Bank" />
<marker sr_no="386" blood_bank_name="Sunder Lal Jain Charitable Hospital Blood Bank" address="Ashok Vihar; Phase-III" mobile_no="2147483647" latitude="28.6919" longitude="77.1816" type="Blood_Bank" />
<marker sr_no="387" blood_bank_name="Max Super Specialty Hospital Blood Bank" address="Max Super Specialty Hospital (A Unit of Max Health Care Institute Ltd); FC-50; Block C and D; Shalimar Bagh" mobile_no="2147483647" latitude="28.728" longitude="77.1529" type="Blood_Bank" />
<marker sr_no="388" blood_bank_name="Lions Blood Bank" address="A.K.-100; Shalimar Bagh" mobile_no="2147483647" latitude="28.7041" longitude="77.1622" type="Blood_Bank" />
<marker sr_no="389" blood_bank_name="Mission Jan Jagriti Blood Bank" address="1; Altius Sonia Hospital; Basement; 1; Gulshan Park; Rohtak Road; Nangloi Metro Station; Metro Piller Number 444" mobile_no="2147483647" latitude="28.5017" longitude="77.2467" type="Blood_Bank" />
<marker sr_no="390" blood_bank_name="Saroj Super Speciality Hospital  Blood Bank" address="Saroj Super Speciality Hospital (Run by Ganesh Das Chowla Charitable Trust-Regd.); Sector-14; Rohini; Madhuban Chowk " mobile_no="2147483647" latitude="28.7061" longitude="77.129" type="Blood_Bank" />
<marker sr_no="391" blood_bank_name="Rajiv Gandhi Cancer Institute and Research Center Blood Bank" address="Rajiv Gandhi Cancer Institute; Sector-V Rohini " mobile_no="2147483647" latitude="28.7165" longitude="77.1109" type="Blood_Bank" />
<marker sr_no="392" blood_bank_name="Dr. Baba Sahab Ambedkar Hospital Blood Bank" address="Sector-6; Rohini" mobile_no="2147483647" latitude="28.7151" longitude="77.1136" type="Blood_Bank" />
<marker sr_no="393" blood_bank_name="Delhi Heart and Lung Institute Blood Bank" address="3 MM-11; Panchkuian Road" mobile_no="2147483647" latitude="28.6416" longitude="77.2052" type="Blood_Bank" />
<marker sr_no="394" blood_bank_name="Park Hospital Blood Bank" address="Keshopur Sabzi Mandi; New Chaukhandi; Vishnu Garden" mobile_no="2147483647" latitude="28.6518" longitude="77.0931" type="Blood_Bank" />
<marker sr_no="395" blood_bank_name="Fortis Hospital Blood Bank" address="A-Block; Shalimar Bagh" mobile_no="2147483647" latitude="28.7092" longitude="77.1702" type="Blood_Bank" />
<marker sr_no="396" blood_bank_name="Pitampura Blood Bank" address="B-294; Saraswati Vihar; Outer Ring Road; Pitampura" mobile_no="2147483647" latitude="28.7" longitude="77.1254" type="Blood_Bank" />
<marker sr_no="397" blood_bank_name="Brahm Shakti Hospital and Research Centre Blood Bank" address="Brahma Shakti Hospital; U-1/78; Budh Vihar " mobile_no="2147483647" latitude="28.7123" longitude="77.0812" type="Blood_Bank" />
<marker sr_no="398" blood_bank_name="Guru Tegh Bahadur Hospital Blood Bank" address="G. T. B. Hospital; Shahdara" mobile_no="0" latitude="28.6839" longitude="77.3099" type="Blood_Bank" />
<marker sr_no="399" blood_bank_name="Holy Family Hospital Blood Bank" address="Holy Family Hospital; Okhla Road" mobile_no="2147483647" latitude="28.563" longitude="77.2758" type="Blood_Bank" />
<marker sr_no="400" blood_bank_name="Batra Hospital and Medical Research Centre Blood Bank" address="1; Tuglakabad Institutional Area; Mehrauli Badarpur Road; Tughlakabad" mobile_no="0" latitude="28.5135" longitude="77.2458" type="Blood_Bank" />
<marker sr_no="401" blood_bank_name="All India Institute of Medical Sciences (AIIMS) Blood Bank" address="AIIMS; Main Blood Bank; Ansari Nagar; Ring Road" mobile_no="0" latitude="28.5672" longitude="77.209" type="Blood_Bank" />
<marker sr_no="402" blood_bank_name="Safdarjung Hospital Blood Bank" address="Safdarjung Hospital; Ansari Nagar; Ring Road " mobile_no="0" latitude="28.568" longitude="77.2058" type="Blood_Bank" />
<marker sr_no="403" blood_bank_name="Shri Moolchand Khariti-Ram Hospital and Ayurvedic Research Institute " address="Mool Chand Hospital; Lajpat Nagar-III" mobile_no="2147483647" latitude="28.5662" longitude="77.2356" type="Blood_Bank" />
<marker sr_no="404" blood_bank_name="National Heart Institute Blood Bank" address="49; Community Center; East of Kailash" mobile_no="2147483647" latitude="28.5574" longitude="77.2457" type="Blood_Bank" />
<marker sr_no="405" blood_bank_name="Max Super Specialty Hospital Blood Bank" address="Max Super Specialty Hospital; Heart and Vascular Institute (A Unit of Devki Devi Foundation Institute); 2; Press Enclave Road; Saket" mobile_no="2147483647" latitude="28.5275" longitude="77.2135" type="Blood_Bank" />
<marker sr_no="406" blood_bank_name="Saket City Hospital Blood Bank" address="Mandir Marg; Press Enclave Road; Saket" mobile_no="2147483647" latitude="28.5277" longitude="77.2143" type="Blood_Bank" />
<marker sr_no="407" blood_bank_name="Rockland Hospital Qutab Blood Bank" address="B; 33-34; Qutab Institutional Area" mobile_no="2147483647" latitude="28.5374" longitude="77.1811" type="Blood_Bank" />
<marker sr_no="408" blood_bank_name="Primus Ortho and Spine Hospital Blood Bank" address="Primus Super Speciality Hospital;02; Chandragupta Marg; Lower Ground Floor; Chanakyapuri" mobile_no="0" latitude="28.5929" longitude="77.1813" type="Blood_Bank" />
<marker sr_no="409" blood_bank_name="White Cross Blood Bank" address="A-60; East of Kailash" mobile_no="2147483647" latitude="28.5607" longitude="77.2536" type="Blood_Bank" />
<marker sr_no="410" blood_bank_name="Rotary Blood Bank" address="56-57; Institutional Area; Tughlakabad ; Next to Batra Hospital " mobile_no="2147483647" latitude="28.5134" longitude="77.2427" type="Blood_Bank" />
<marker sr_no="411" blood_bank_name="Jai Prakash Narayan Apex Trauma Centre Blood Bank" address="Jai Prakash Narayen Apex Trauma Centre; AIIMS; Raj Nagar; Ring Road" mobile_no="2147483647" latitude="28.5681" longitude="77.2003" type="Blood_Bank" />
<marker sr_no="412" blood_bank_name="Fortis Escort Heart Institute Blood Bank" address="Fortis Escort Heart Institute; Okhla Road  " mobile_no="2147483647" latitude="28.5605" longitude="77.2738" type="Blood_Bank" />
<marker sr_no="413" blood_bank_name="Hakeem Abdul Hameed Centenary Hospital Blood Bank" address="Jamia Hamdard; Hamdard Nagar" mobile_no="2147483647" latitude="28.5137" longitude="77.2519" type="Blood_Bank" />
<marker sr_no="414" blood_bank_name="Apollo Hospital Blood Bank" address="Indraprastha Medical Corporation; Sarita Vihar" mobile_no="0" latitude="28.5406" longitude="77.2834" type="Blood_Bank" />
<marker sr_no="415" blood_bank_name="Armed Forces Transfusion Centre Blood Bank" address="Delhi Cantonment; Area Sadar Bazar; Army Public School" mobile_no="0" latitude="28.5964" longitude="77.1176" type="Blood_Bank" />
<marker sr_no="416" blood_bank_name="Fortis Flt. Lt. Rajan Dhall Hospital Blood Bank" address="Fortis Flt. Lt. Rajan Dhall Hospital (A unit of Flt. Lt. Ranjan Dhall Charitable Trust Regd.); Sector-B; Pocket-1; Aruna Asaf Ali Marg; Vasant Kunj" mobile_no="2147483647" latitude="28.5194" longitude="77.1604" type="Blood_Bank" />
<marker sr_no="417" blood_bank_name="Institute of Liver and Biliary Sciences Blood Bank" address="Institute of Liver and Biliary Sciences; D-1; Vasant Kunj" mobile_no="2147483647" latitude="28.5063" longitude="77.1651" type="Blood_Bank" />
<marker sr_no="418" blood_bank_name="Mata Chanan Devi Hospital Blood Bank" address="Mata Chanan Devi Hospital; C-1 Janakpuri New Delhi " mobile_no="2147483647" latitude="28.6189" longitude="77.0784" type="Blood_Bank" />
<marker sr_no="419" blood_bank_name="Bhagat Chandra Hospital Blood Bank" address="RZF-1/1; Mahavir  Enclave; Palam" mobile_no="0" latitude="28.5935" longitude="77.0812" type="Blood_Bank" />
<marker sr_no="420" blood_bank_name="Indian Spinal Injuries Centre Blood Bank" address="Indian Spinal Injuries Centre; C-8; Vasant Kunj" mobile_no="2147483647" latitude="28.5327" longitude="77.1418" type="Blood_Bank" />
<marker sr_no="421" blood_bank_name="Bensups Hospital Blood Bank" address="Bansups Avenue; Sector 12; Dwarka" mobile_no="2147483647" latitude="28.5928" longitude="77.0442" type="Blood_Bank" />
<marker sr_no="422" blood_bank_name="Blood Bank Organisation" address="11/6-B; Shanti Chamber; Opposite Telephone Exchange; Pusa Road" mobile_no="2147483647" latitude="28.6428" longitude="77.1816" type="Blood_Bank" />
<marker sr_no="423" blood_bank_name="E. S. I. Hospital Blood Bank" address="E S I Hospital; Basai  Darapur; Ring Road" mobile_no="2147483647" latitude="28.6577" longitude="77.1301" type="Blood_Bank" />
<marker sr_no="424" blood_bank_name="Maharaja Agrasen Hospital Blood Bank" address="Maharaja Agrasen Hospital; West Punjabi Bagh" mobile_no="2147483647" latitude="28.6741" longitude="77.1341" type="Blood_Bank" />
<marker sr_no="425" blood_bank_name="Sri Balaji Action Medical Institute Blood Bank" address="Sri Balaji Action Medical Institute; FC-34; A-4; Paschim Vihar" mobile_no="0" latitude="28.6737" longitude="77.1102" type="Blood_Bank" />
<marker sr_no="426" blood_bank_name="Dr. B. L. Kapoor Memorial Hospital Blood Bank" address="B. L. K. Memorial Hospital;  Pusa Road" mobile_no="2147483647" latitude="28.6436" longitude="77.18" type="Blood_Bank" />
<marker sr_no="427" blood_bank_name="Kalra Hospital and Shri Ram Cardiothoracic and Neurosciences Center (SRCNC) Blood Bank" address="Kalra Hospital SRNCNC; A-4; Kirti Nagar" mobile_no="2147483647" latitude="28.6578" longitude="77.1427" type="Blood_Bank" />
<marker sr_no="428" blood_bank_name="R.B.T.C (wz), Deen Dayal Upadhyay Hospital" address="Deen Dayal Upadhyay Hospital; Hari Nagar; Near Clock Tower" mobile_no="2147483647" latitude="28.5834" longitude="77.1176" type="Blood_Bank" />
<marker sr_no="429" blood_bank_name="Jaipur Golden Hospital Blood Bank" address="Jaipur Golden Hospital; 2; Industrial Area;  Rohini; Sector-III " mobile_no="2147483647" latitude="28.6977" longitude="77.1095" type="Blood_Bank" />
<marker sr_no="430" blood_bank_name="Jan Jagriti Blood Bank" address="Mission Jan Jagriti; Blood Bank; C/o. Jeevan Anmol Hospital Mayur Vihar Phase I " mobile_no="2147483647" latitude="28.606" longitude="77.2954" type="Blood_Bank" />
<marker sr_no="431" blood_bank_name="District Hospital Blood Bank " address="District Hospital; Pedem; Mapusa; Goa " mobile_no="2147483647" latitude="15.5976" longitude="73.8202" type="Blood_Bank" />
<marker sr_no="432" blood_bank_name="Goa Medical College Blood Bank" address="Goa Medical College; Bambolim; Tiswadi; Goa " mobile_no="2147483647" latitude="15.4638" longitude="73.8588" type="Blood_Bank" />
<marker sr_no="433" blood_bank_name="Hospicio Hospital Blood Bank" address="Hospicio Hospital; Margao; Salcete; Goa " mobile_no="2147483647" latitude="15.2795" longitude="73.9606" type="Blood_Bank" />
<marker sr_no="434" blood_bank_name="Apollo Victor Hospital Blood Bank" address="Apollo Victor Hospital; Malbhat; Margao" mobile_no="0" latitude="15.2688" longitude="73.9656" type="Blood_Bank" />
<marker sr_no="435" blood_bank_name="SMRC&amp;#39;s V. M. Salgaocar Hospital Blood Bank" address="SMRC&amp;#39;s V.M.Salgaocar Hospital; Chicalim; off Airport Road; Vasco-da-Gama  " mobile_no="2147483647" latitude="15.3951" longitude="73.8371" type="Blood_Bank" />
<marker sr_no="436" blood_bank_name="V. S. Hospital Blood Bank" address="C/o. Sheth; Vadilal Sarabhai (V.S.) Hospital; Ellisbridge; Ahmedabad" mobile_no="2147483647" latitude="23.0206" longitude="72.5717" type="Blood_Bank" />
<marker sr_no="437" blood_bank_name="Smt. Shardaben Hospital Blood Bank" address="Smt. Laxmiben Chimanlal Lalbhai Blood Bank; C/o. The Superintendent; Smt. Shardaben Chimanlal Municipal General Hospital; Saraspur; Ahmedabad." mobile_no="2147483647" latitude="23.0353" longitude="72.6177" type="Blood_Bank" />
<marker sr_no="438" blood_bank_name="L. G. Hospital Blood Bank" address="Sheth L.G. General Hospital and Blood Bank; Maninagar;  Ahmedabad" mobile_no="2147483647" latitude="22.9995" longitude="72.6046" type="Blood_Bank" />
<marker sr_no="439" blood_bank_name="Civil Hospital Blood Bank" address="Blood Bank; Department of IHBT; C/o.The Civil Hospital; Asarwa; Ahmedabad" mobile_no="2147483647" latitude="23.0512" longitude="72.6055" type="Blood_Bank" />
<marker sr_no="440" blood_bank_name="General Hospital Blood Bank Sola" address="Blood Bank; Civil Hospital; Sarkhej Highway; Near Gujarat High Court;  Sola; Ahmedabad" mobile_no="2147483647" latitude="23.0827" longitude="72.5259" type="Blood_Bank" />
<marker sr_no="441" blood_bank_name="Indian Red Cross Society Blood Bank" address="Indian Red Cross Society; J. L. Thakore Red Cross Bhavan;  18-Gujarat Brahmkshatriya Society; Behind Suvidha Market; Paldi; Ahmedabad" mobile_no="2147483647" latitude="23.0127" longitude="72.5577" type="Blood_Bank" />
<marker sr_no="442" blood_bank_name="The Gujarat Cancer &amp; Research Institute Blood Bank" address="The Gujarat Cancer &amp; Research Institute; M.P. Shah Cancer Hospital; Civil Hospital Campus; Asarwa; Ahmedabad" mobile_no="2147483647" latitude="23.0391" longitude="72.6103" type="Blood_Bank" />
<marker sr_no="443" blood_bank_name="Institute of Kidney Disease and Research Centre " address="Blood Bank; The Institute of Kidney Disease and Research Centre; Civil Hospital Compound; Asarwa; Ahmedabad" mobile_no="2147483647" latitude="23.0514" longitude="72.6056" type="Blood_Bank" />
<marker sr_no="444" blood_bank_name="Help Voluntary Blood Bank  " address="Help Voluntary Blood Bank (Green Cross Voluntary Blood Bank Pathology and RIA Laboratory) 6 and 7; Kotyark Complex; Opposite to L.G. Hospital; Maninagar; Ahmedabad " mobile_no="98244" latitude="23.0001" longitude="72.6049" type="Blood_Bank" />
<marker sr_no="445" blood_bank_name="GUJARAT CANCER MEDICAL COLLEGE" address="Blood Bank; Gujarat Cancer Society Medical College Hospital and Research Centre;  Opp. D.R.M. office; Swadesi Mill compound; Near Chamunda Bridge;  Ahmedabad" mobile_no="2147483647" latitude="23.0387" longitude="72.6103" type="Blood_Bank" />
<marker sr_no="446" blood_bank_name="General Hospital Blood Bank " address="Model Hospital Blood Bank; (ESIS); Blood Bank; Bapunagar; Ahmedabad" mobile_no="0" latitude="23.0281" longitude="72.6239" type="Blood_Bank" />
<marker sr_no="447" blood_bank_name="Military Hospital Blood Bank" address="Military Hospital Blood Bank; 24; M. H. Complex; Ahmedabad" mobile_no="2147483647" latitude="0" longitude="0" type="Blood_Bank" />
<marker sr_no="448" blood_bank_name="Dr. Jivraj Mehta  Smarak Health Foundation Blood Bank" address="Blood Bank; Dr. Jivraj Mehta  Smarak Health Foundation; Bakeri Medical Research Centre; Arogya Dham; Dr. Jivraj Mehta Marg; Ahmedabad." mobile_no="2147483647" latitude="23.0083" longitude="72.5434" type="Blood_Bank" />
<marker sr_no="449" blood_bank_name="Prathama Blood Centre" address="Prathama Blood Centre; B/H Jivraj Mehta Hospital; Near Lavanya Society; Dr. C.V. Raman Marg; Vasna; Ahmedabad" mobile_no="2147483647" latitude="23.0062" longitude="72.5419" type="Blood_Bank" />
<marker sr_no="450" blood_bank_name="White Cross Blood Bank " address="White Cross Blood Bank (Vol.); 2nd Floor; Kandhari Building;  Opposite to S.T. Workshop; Naroda Road Patia; Naroda ; Ahmedabad" mobile_no="98254" latitude="23.0657" longitude="72.6368" type="Blood_Bank" />
<marker sr_no="451" blood_bank_name="Adarsh Pathology Laboratory and Blood Bank" address="Adarsh Pathology Laboratory and Blood Bank; 1st Floor; Samjuba Hospital; Bapunagar; Ahmedabad" mobile_no="2147483647" latitude="23.0332" longitude="72.6284" type="Blood_Bank" />
<marker sr_no="452" blood_bank_name="Gujarat Blood Bank Paldi" address="Gujarat Blood Bank (Voluntary); Pathology Laboratory; 101; Span Trade Centre; Opp. Kochrab Ashram; Near Paldi Char Rasta; Paldi; Ahmedabad" mobile_no="98245" latitude="23.0164" longitude="72.5663" type="Blood_Bank" />
<marker sr_no="453" blood_bank_name="Karnavati Blood Bank and Pathology Lab" address="Karnavati Blood Bank and Pathology Lab; 36; Subhlaxmi Complex; Naranpura; Ahmedabad" mobile_no="2147483647" latitude="23.0579" longitude="72.553" type="Blood_Bank" />
<marker sr_no="454" blood_bank_name="Cross World Voluntary Blood Bank " address="Cross World Voluntary Blood Bank; Chandraprabhu Complex; Sardar Patel Cross Road; Ahmedabad" mobile_no="2147483647" latitude="23.0563" longitude="72.5702" type="Blood_Bank" />
<marker sr_no="455" blood_bank_name="Maha Gujarat Blood Bank" address="Maha Gujarat Blood Bank (Voluntary) and Pathology Lab; 21; Parth  Comp.; Near Maninagar Fire Station; Maninagar; Ahmedabad" mobile_no="2147483647" latitude="22.9976" longitude="72.6031" type="Blood_Bank" />
<marker sr_no="456" blood_bank_name="Supratech Voluntary Blood Bank" address="Supratech Voluntary Blood Bank; Mild Stone Building; 1st Floor; Near Drive-in Cinema; Thaltej; Ahmedabad" mobile_no="2147483647" latitude="23.0677" longitude="72.512" type="Blood_Bank" />
